Name,Location,longitude,latitude,image,description,onBoard,logo,Country,Continent,Union,ID,Created date,Updated date,Owner,Email
Mt. Buller,,146.44897,-37.146795,image://v1/25b4a3_c4a876f919e94598a3e717714b801101~mv2.jpeg/1200_675/mount-buller%20(1).jpeg,"Just three hours' drive from Melbourne, Mt Buller is close enough for a day’s escape yet far enough away for a holiday. Mt Buller has everything you need for the perfect winter snow experience.",TRUE,image://v1/25b4a3_14894f6e67074df583594975880ac212~mv2.jpg/3096_894/F5G_T77LOLT3-theme-logo.jpg,Australia,Oceania,,b8b7137d-37e3-4427-8fe1-92168d075f35,2018-05-08T11:28:48Z,2018-06-20T05:26:00Z,,
Aspen Snowmass,,-106.949909,39.208956,image://v1/25b4a3_e6797986145949f7b799e83d87896544~mv2.jpg/760_514/aspensnowmass%20(1).jpg,"At Snowmass, you could spend your entire trip skiing and riding its terrain without covering the same ground twice.",FALSE,image://v1/25b4a3_2ec9f5bc6d404f3b99775103135c5052~mv2.jpg/717_230/Aspen_Snowmass_-_Stacked_Logo.jpg,USA,,,b5103af6-1755-463b-b363-6464a04dc93f,2018-05-08T11:28:48Z,2018-06-19T06:15:12Z,,
Niseko United,,140.647951,42.847472,image://v1/25b4a3_32610180dc624df29d3e1cfeb06fb13e~mv2.jpg/1920_1080/niseko%20(1).jpg,"Niseko United is comprised of four resorts on the one mountain, Niseko Annupuri (1,308m).",TRUE,image://v1/25b4a3_416b92031960410f979ef091cd658678~mv2.jpg/1887_676/TRS_07075_Niseko_Logo_Summer_Version_B_RGB.jpg,Japan,Asia,,0feee650-847f-4fe2-8ce2-425e391e87ab,2018-05-08T11:28:46Z,2018-06-15T02:10:27Z,,
Ötscher – Lackenhof (Gaming),,15.2024638,47.8614921,,,,,Austria,Europe,EU,0382294a-20c2-4f7e-912b-879689c28965,2018-05-08T11:28:44Z,2018-06-01T02:05:11Z,,
Ötzlifte (Rabenkopf) – Kochel am See,,11.3978226,47.6728665,,,,,Germany,Europe,EU,7d9ac5f3-a455-4440-9a43-8462a8705392,2018-05-08T11:28:44Z,2018-06-01T02:05:11Z,,
Østerlars (Bornholm),,14.965579,55.164759,,,,,Denmark,Europe,EU,28b9325e-d1a9-404c-9a30-703d0b5c8317,2018-05-08T11:28:44Z,2018-06-01T02:05:11Z,,
Čelimbaša,,14.8598071,45.3088246,,,,,Croatia,Europe,EU,656b94e0-94a4-4af7-b5fb-6e362c8d9b3a,2018-05-08T11:28:44Z,2018-06-01T02:05:11Z,,
Černá hora – Janské Lázně,,15.741944,50.6525,,,,,Czech Republic,Europe,EU,bfcedfff-9291-44ff-a23a-1b00aebc1ccf,2018-05-08T11:28:44Z,2018-06-01T02:05:11Z,,
Černá Říčka,,15.329517,50.77764,,,,,Czech Republic,Europe,EU,5e7dabca-659f-4d90-a86f-82656979de4a,2018-05-08T11:28:44Z,2018-06-01T02:05:11Z,,
Černý Důl,,15.7106011,50.6349589,,,,,Czech Republic,Europe,EU,bf5db3a8-08dd-4a6a-95c8-3158251fd4e8,2018-05-08T11:28:44Z,2018-06-01T02:05:11Z,,
Čertova hora – Harrachov,,15.4305555,50.7616667,,,,,Czech Republic,Europe,EU,22e33b2d-15bd-499c-a44d-23f4a2fbd05c,2018-05-08T11:28:44Z,2018-06-01T02:05:11Z,,
Čertovica,,19.7358915,48.9054897,,,,,Slovakia,Europe,EU,3f7bf3a4-810b-4396-8079-85455795211f,2018-05-08T11:28:44Z,2018-06-01T02:05:11Z,,
Červenohorské sedlo,,17.1540724,50.1246338,,,,,Czech Republic,Europe,EU,02da54b4-7553-4012-9f0c-49b5154e72ca,2018-05-08T11:28:44Z,2018-06-01T02:05:11Z,,
Červená Voda,,16.7426871,50.0402889,,,,,Czech Republic,Europe,EU,4227f852-9fe6-40b6-8c0d-31052ad7ed02,2018-05-08T11:28:44Z,2018-06-01T02:05:11Z,,
Čerťák – Václavov u Bruntálu (Ski Karlov),,17.328235,49.994413,,,,,Czech Republic,Europe,EU,c7f30143-4cc2-4b17-8d1d-d8cdcb9f6668,2018-05-08T11:28:44Z,2018-06-01T02:05:11Z,,
České Petrovice,,16.6053741,50.1192736,,,,,Czech Republic,Europe,EU,c80d4b46-a44b-48c0-98a5-5e16d838a09f,2018-05-08T11:28:44Z,2018-06-01T02:05:11Z,,
České Žleby,,13.7750204,48.8783734,,,,,Czech Republic,Europe,EU,1cd4d68c-b600-427c-9118-81b95b67d2ea,2018-05-08T11:28:44Z,2018-06-01T02:05:11Z,,
Český Jiřetín,,13.5473892,50.7074897,,,,,Czech Republic,Europe,EU,37d48e59-6249-4aca-9d96-4a8be62b20a5,2018-05-08T11:28:44Z,2018-06-01T02:05:11Z,,
Čihadlo,,14.9758333,49.2536111,,,,,Czech Republic,Europe,EU,5b97d5bb-54ce-4cf4-b8ec-a41a1b2213a7,2018-05-08T11:28:44Z,2018-06-01T02:05:11Z,,
Łysa Góra – Sopot,,18.5417385,54.4426125,,,,,Poland,Europe,EU,d171f007-67bc-41e0-8f44-3ba3dcf2cf25,2018-05-08T11:28:44Z,2018-06-01T02:05:11Z,,
Říčky v Orlických horách,,16.4590198,50.2109924,,,,,Czech Republic,Europe,EU,6e97dd6c-c4bf-4ac6-b6e8-f5e92a1a5160,2018-05-08T11:28:44Z,2018-06-01T02:05:11Z,,
Śnieżka – Karpacz,,15.7399457,50.7360171,,,,,Poland,Europe,EU,c7bdeb64-1466-4e46-8e65-28808850c9f2,2018-05-08T11:28:44Z,2018-06-01T02:05:11Z,,
Śnieżnica – Kasina Wielka,,20.1521525,49.7188869,,,,,Poland,Europe,EU,eb3c9901-5aed-409b-85d4-77d8b1c3ccd6,2018-05-08T11:28:44Z,2018-06-01T02:05:11Z,,
Świeradów Zdrój,,15.3431045,50.9087219,,,,,Poland,Europe,EU,28f2096f-ed22-4805-9ffc-21bf23e41bdf,2018-05-08T11:28:44Z,2018-06-01T02:05:11Z,,
Šacberk,,15.5793,49.4379428,,,,,Czech Republic,Europe,EU,b890c8e3-6f01-4356-8b2a-cd9a073891c7,2018-05-08T11:28:44Z,2018-06-01T02:05:11Z,,
Šachtičky,,19.1595976,48.8027351,,,,,Slovakia,Europe,EU,20b655a6-6fc4-426c-9d96-629e35253b9e,2018-05-08T11:28:44Z,2018-06-01T02:05:11Z,,
Šachty – Vysoké nad Jizerou,,15.3943617,50.692436,,,,,Czech Republic,Europe,EU,898bca03-f570-4cc7-993a-90cc1d08fff4,2018-05-08T11:28:44Z,2018-06-01T02:05:11Z,,
Šanov – Červená Voda,,16.7601888,50.0490074,,,,,Czech Republic,Europe,EU,64d03f27-ef14-4b06-837b-957b4aa5c02d,2018-05-08T11:28:44Z,2018-06-01T02:05:11Z,,
Šentjošt nad Horjulom,,14.2244172,46.0318089,,,,,Slovenia,Europe,EU,c0423c2e-f965-4c3f-bfca-70e031908718,2018-05-08T11:28:44Z,2018-06-01T02:05:11Z,,
Šindelná,,18.603333,49.612778,,,,,Czech Republic,Europe,EU,449444ff-3b55-4306-80bb-cd131736b279,2018-05-08T11:28:44Z,2018-06-01T02:05:11Z,,
Španov vrh,,14.028445,46.442375,,,,,Slovenia,Europe,EU,8bcdf315-f258-48c6-8730-61c38fa3649a,2018-05-08T11:28:44Z,2018-06-01T02:05:11Z,,
Špindlerův Mlýn,,15.6094494,50.7261499,,,,,Czech Republic,Europe,EU,3c1e3115-f8aa-49a6-a70e-7184907f63e7,2018-05-08T11:28:44Z,2018-06-01T02:05:11Z,,
Špičák,,13.2269012,49.1579268,,,,,Czech Republic,Europe,EU,248e4924-4cd2-4236-9247-c747fcaad732,2018-05-08T11:28:44Z,2018-06-01T02:05:11Z,,
Štrbské Pleso,,20.0586557,49.1228446,,,,,Slovakia,Europe,EU,ad4e4971-9b0e-4ae6-a90f-f13b50b0a6ee,2018-05-08T11:28:44Z,2018-06-01T02:05:11Z,,
Švýcarská Bouda – Abertamy,,12.8475892,50.3590047,,,,,Czech Republic,Europe,EU,05e5921a-c86a-4c89-a33c-c1e2670c03ad,2018-05-08T11:28:44Z,2018-06-01T02:05:11Z,,
Žiar – Dolinky,,19.6793542,49.1348668,,,,,Slovakia,Europe,EU,e58074ba-e257-4021-83b2-d35cabb6f3f3,2018-05-08T11:28:44Z,2018-06-01T02:05:11Z,,
​Hauser Kaibling,,13.779642,47.411524,,,,,Austria,Europe,EU,bea7a0b6-cc43-4a95-982e-350f0215f68e,2018-05-08T11:28:44Z,2018-06-01T02:05:11Z,,
​Hochwurzen,,13.646216,47.3707927,,,,,Austria,Europe,EU,bfa8e103-dfc2-4c88-9985-65b03e0d05aa,2018-05-08T11:28:44Z,2018-06-01T02:05:11Z,,
​Reiteralm (4-Berge-Skischaukel),,13.5976004,47.3887801,,,,,Austria,Europe,EU,ecc68e7d-9cc0-4c25-ad0a-3de8e23bda1b,2018-05-08T11:28:44Z,2018-06-01T02:05:11Z,,
Zagroń,,18.9057082,49.5741124,,,,,Poland,Europe,EU,1fce51a2-6576-460f-a94c-3931afce6eaa,2018-05-08T11:28:43Z,2018-06-01T02:05:11Z,,
Zahmer Kaiser – Walchsee,,12.287768,47.637728,,,,,Austria,Europe,EU,ce8324c0-c4e0-4d90-bd1b-42921735e9d8,2018-05-08T11:28:43Z,2018-06-01T02:05:11Z,,
Zams,,10.5894458,47.1575863,,,,,Austria,Europe,EU,8ef26acc-754a-4495-9137-2f657ffabd40,2018-05-08T11:28:43Z,2018-06-01T02:05:11Z,,
Zao Eboshi,,140.528618,38.126039,,,,,Japan,Asia,,e4745c3d-1ff0-4270-bbae-753b41013930,2018-05-08T11:28:43Z,2018-06-01T02:05:11Z,,
Zao Onsen,,140.3952387,38.1665511,,,,,Japan,Asia,,2580c22e-0829-414b-bf59-7393dfbe661b,2018-05-08T11:28:43Z,2018-06-01T02:05:11Z,,
Zao Sumikawa,,140.4949691,38.1350872,,,,,Japan,Asia,,b31543c8-1ecf-48a7-bf2b-d4209665b2c4,2018-05-08T11:28:43Z,2018-06-01T02:05:11Z,,
Zauberberg Semmering,,15.8294229,47.6314723,,,,,Austria,Europe,EU,996e82d2-e85d-4c65-a7cb-0aa7660a3804,2018-05-08T11:28:43Z,2018-06-01T02:05:11Z,,
Zauchensee,,13.4231953,47.3783618,,,,,Austria,Europe,EU,9b510f94-1123-4378-8e77-ce29f2c5d226,2018-05-08T11:28:43Z,2018-06-01T02:05:11Z,,
Zbojská,,19.8508402,48.7436105,,,,,Slovakia,Europe,EU,58bfbeb3-e348-45f4-9edc-20e251f33b7d,2018-05-08T11:28:43Z,2018-06-01T02:05:11Z,,
Zborov,,16.8358644,49.9436538,,,,,Czech Republic,Europe,EU,dd024fb8-7681-4c14-87b5-7a9585a06a4a,2018-05-08T11:28:43Z,2018-06-01T02:05:11Z,,
Zbraslav u Brna,,16.2941515,49.2215531,,,,,Czech Republic,Europe,EU,ff1ac63c-92fb-47ea-8d9e-867d96fa3b87,2018-05-08T11:28:43Z,2018-06-01T02:05:11Z,,
Zebra – Białka Tatrzańska,,20.0978847,49.3767438,,,,,Poland,Europe,EU,d1694c5f-868e-4cb7-8846-1bbfb87e1f03,2018-05-08T11:28:43Z,2018-06-01T02:05:12Z,,
Zellenberg – Kukmirn,,16.2086997,47.0758529,,,,,Austria,Europe,EU,71438d68-b6c2-481e-a9d7-d7f4f00c0e12,2018-05-08T11:28:43Z,2018-06-01T02:05:12Z,,
Zempléni-hegy – Sátoraljaújhely,,21.639023,48.4129189,,,,,Hungary,Europe,EU,97e2d8e4-cbe1-4444-a5fa-fd7b32b64599,2018-05-08T11:28:43Z,2018-06-01T02:05:12Z,,
Zermatt,,7.749117,46.0207133,,,,,Switzerland,Europe,,929a47ff-272b-49af-9034-03812b1bf42a,2018-05-08T11:28:43Z,2018-06-01T02:05:12Z,,
Zettersfeld – Lienz,,12.7906466,46.8636731,,,,,Austria,Europe,EU,109a8065-2b9a-4ecb-a8ce-15835dadfde3,2018-05-08T11:28:43Z,2018-06-01T02:05:12Z,,
Ziegenberg – Zwönitz,,12.814497,50.6249242,,,,,Germany,Europe,EU,4e166953-5ea3-4f54-951d-9f96eac156fb,2018-05-08T11:28:43Z,2018-06-01T02:05:12Z,,
Ziegenhelle – Snow World Züschen,,8.5376234,51.138294,,,,,Germany,Europe,EU,5dac65c8-0230-40ad-bea5-b60097ef9b05,2018-05-08T11:28:43Z,2018-06-01T02:05:12Z,,
Zieleniec,,16.683333,50.6,,,,,Poland,Europe,EU,7d13dfff-485c-4fb5-a603-ac4a5f28659e,2018-05-08T11:28:43Z,2018-06-01T02:05:12Z,,
Zil,,74.764563,42.6543834,,,,,Kyrgyzstan,,,481dc516-e73a-45ff-9b42-cdaa62413e82,2018-05-08T11:28:43Z,2018-06-01T02:05:12Z,,
Zillertal Arena – Zell am Ziller,,11.8998671,47.2372724,,,,,Austria,Europe,EU,a25351ce-d17a-4c5f-8098-9061812f665e,2018-05-08T11:28:43Z,2018-06-01T02:05:12Z,,
Zinal,,7.6257892,46.1357214,,,,,Switzerland,Europe,,559bffae-ee4b-4a52-96e1-756425f88281,2018-05-08T11:28:43Z,2018-06-01T02:05:12Z,,
Zinkenlifte – Dürrnberg (Hallein),,13.090595,47.6544226,,,,,Austria,Europe,EU,c72e264c-4ff4-4c1f-8129-072fc8da74af,2018-05-08T11:28:43Z,2018-06-01T02:05:12Z,,
Zinols – Bergün,,9.6542794,46.6681199,,,,,Switzerland,Europe,,a79c1423-6b8e-48e1-9302-697dc9a5bcac,2018-05-08T11:28:43Z,2018-06-01T02:05:12Z,,
Zlaim – Grundlsee,,13.8350939,47.6171527,,,,,Austria,Europe,EU,ce44443b-3ab1-481d-9297-e2ece7174cfb,2018-05-08T11:28:43Z,2018-06-01T02:05:12Z,,
Zlatar,,19.8259808,43.5097387,,,,,Serbia,Europe,,512933e5-cc0a-400d-8519-f9be4f1fd4dc,2018-05-08T11:28:43Z,2018-06-01T02:05:12Z,,
Zlatá Olešnice,,15.3535157,50.708547,,,,,Czech Republic,Europe,EU,5a303195-9415-4e29-882e-325df2b0fe16,2018-05-08T11:28:43Z,2018-06-01T02:05:12Z,,
Zloty Stok w Krzeszowie,,22.3341011,50.4057322,,,,,Poland,Europe,EU,4ccaca8a-dc52-4c28-bdb6-3e73c985cdc9,2018-05-08T11:28:43Z,2018-06-01T02:05:12Z,,
Zoldo,,12.1771585,46.3458983,,,,,Italy,Europe,EU,76aca8de-36a8-42f7-bd3f-a060772ecfd8,2018-05-08T11:28:43Z,2018-06-01T02:05:12Z,,
Zoncolan – Ravascletto,,12.9192317,46.4996935,,,,,Italy,Europe,EU,da6cf04a-813c-4e90-a05a-734365c0e0fa,2018-05-08T11:28:43Z,2018-06-01T02:05:12Z,,
Zschorlau,,12.6493557,50.5683139,,,,,Germany,Europe,EU,836e354a-4aed-4eba-918d-2fda0a2578f7,2018-05-08T11:28:43Z,2018-06-01T02:05:12Z,,
Zuckerfeld,,9.9437228,50.479542,,,,,Germany,Europe,EU,9e03edd3-7a3f-407e-9e5b-43af1d9d464a,2018-05-08T11:28:43Z,2018-06-01T02:05:12Z,,
Zuflucht (Baiersbronn),,8.2352404,48.4950528,,,,,Germany,Europe,EU,00937caa-598f-4804-be01-175e66a6874a,2018-05-08T11:28:43Z,2018-06-01T02:05:12Z,,
Zugerberg,,8.54076,47.1422,,,,,Switzerland,Europe,,6945ce32-1dca-49ea-b8f8-36e86256a274,2018-05-08T11:28:43Z,2018-06-01T02:05:12Z,,
Zugspitze,,10.9853652,47.421066,,,,,Germany,Europe,EU,53d2d203-7d14-4276-a385-30a29be944da,2018-05-08T11:28:43Z,2018-06-01T02:05:12Z,,
Zum Zeri – Passo dei due Santi,,9.7524038,44.3893411,,,,,Italy,Europe,EU,5137a07c-0389-4509-85cb-5a5886a4df8d,2018-05-08T11:28:43Z,2018-06-01T02:05:12Z,,
Zuoz – Pizzet,,9.9447654,46.6000562,,,,,Switzerland,Europe,,4ee236ca-eccb-4944-849e-2e3c2181a53e,2018-05-08T11:28:43Z,2018-06-01T02:05:12Z,,
Zvičina,,15.6875757,50.4556455,,,,,Czech Republic,Europe,EU,88f7d487-584b-4bc5-a5d8-5d6f63d10f28,2018-05-08T11:28:43Z,2018-06-01T02:05:12Z,,
Zwölferhorn – St. Gilgen,,13.3628441,47.7630749,,,,,Austria,Europe,EU,38733cb2-0ee2-40cc-951c-44ff35244dba,2018-05-08T11:28:43Z,2018-06-01T02:05:12Z,,
Zwölfmorgental – Wernigerode,,10.7872226,51.8253135,,,,,Germany,Europe,EU,ec421d16-34b7-463e-a33e-e9c641880b95,2018-05-08T11:28:43Z,2018-06-01T02:05:12Z,,
Zákoutí – Harrachov,,15.435432,50.7740767,,,,,Czech Republic,Europe,EU,c1e86174-8dcf-4720-990f-8a1bc62d6f29,2018-05-08T11:28:43Z,2018-06-01T02:05:12Z,,
Záluží,,13.8604993,49.8426978,,,,,Czech Republic,Europe,EU,5812a30a-271b-461f-b586-326301b8a032,2018-05-08T11:28:43Z,2018-06-01T02:05:12Z,,
Zásada,,15.2699399,50.6976844,,,,,Czech Republic,Europe,EU,d0f3d104-6155-4de5-a604-2ee9558a4ece,2018-05-08T11:28:43Z,2018-06-01T02:05:12Z,,
Zöblen,,10.4797603,47.5076354,,,,,Austria,Europe,EU,c727c194-a311-43cc-95a3-0b4023b6aeae,2018-05-08T11:28:43Z,2018-06-01T02:05:12Z,,
Zürs,,10.16288,47.17134,,,,,Austria,Europe,EU,5e57899b-b7c6-4871-8828-30b192716ce6,2018-05-08T11:28:43Z,2018-06-01T02:05:12Z,,
Złoty Groń,,18.9175103,49.5719543,,,,,Poland,Europe,EU,31825d40-06d6-4453-9df9-32ef4aff62a0,2018-05-08T11:28:43Z,2018-06-01T02:05:12Z,,
xPark Františkov – Jindřichov,,17.013076,50.1338155,,,,,Czech Republic,Europe,EU,d86affc4-ce7d-4c7e-8e30-bcc1a26f127f,2018-05-08T11:28:43Z,2018-06-01T02:05:12Z,,
Ål Skisenter,,8.5343693,60.6692831,,,,,Norway,Europe,,2249f32c-c722-4389-8b1b-d8e1a8012c39,2018-05-08T11:28:43Z,2018-06-01T02:05:12Z,,
Åre,,13.0815058,63.3990428,,,,,Sweden,Europe,EU,e37d2d42-2ac9-4f55-9a21-d17acd6ce68e,2018-05-08T11:28:43Z,2018-06-01T02:05:12Z,,
Çirtkaya – Bitlis,,29.1050057,41.0512251,,,,,Turkey,Asia,,687092e9-b1c5-40eb-83a1-0f584ba6dd77,2018-05-08T11:28:43Z,2018-06-01T02:05:12Z,,
Willamette Pass – Crescent,,-122.036475,43.600706,,,,,USA,,,fc6809ac-a2cf-4268-8356-261ca6541b6b,2018-05-08T11:28:42Z,2018-06-01T02:05:12Z,,
Willingen – Ettelsberg,,8.5975001,51.277778,,,,,Germany,Europe,EU,0a09f13f-ed61-42c5-8bf0-ff1a37877d4e,2018-05-08T11:28:42Z,2018-06-01T02:05:12Z,,
Wilmot Mountain,,-88.1876602,42.4989548,,,,,USA,,,7b9c9893-8834-4f7a-bc4b-4c42296a18d1,2018-05-08T11:28:42Z,2018-06-01T02:05:12Z,,
Wimmerlifte – Purgstall bei Eggersdorf,,15.5627116,47.1261442,,,,,Austria,Europe,EU,5a2dd094-3033-444a-96c0-d7b2474e2c3e,2018-05-08T11:28:42Z,2018-06-01T02:05:12Z,,
Windheim – Steinbach am Wald,,11.3368363,50.4270575,,,,,Germany,Europe,EU,6ff7faa6-c9c7-4828-8bcd-a02c1002440c,2018-05-08T11:28:42Z,2018-06-01T02:05:12Z,,
Winklmoosalm – Waidring,,12.5417895,47.6574171,,,,,Austria,Europe,EU,eba7913e-1ab8-4fa8-9b72-044f54601378,2018-05-08T11:28:42Z,2018-06-01T02:05:12Z,,
Winter Park Resort,,-105.762548,39.8868485,,,,,USA,,,12ecc664-5e9c-453b-b5d3-12e8d1ef81a5,2018-05-08T11:28:42Z,2018-06-01T02:05:12Z,,
Winter Park – Kewaunee County,,-87.559558,44.459461,,,,,USA,,,77886b73-92c8-483c-a424-8cf892961d8d,2018-05-08T11:28:42Z,2018-06-01T02:05:12Z,,
Winterberg (Skiliftkarussell),,8.5239772,51.1989209,,,,,Germany,Europe,EU,e2597712-409b-4d34-9baf-6b2c2d6f6cf0,2018-05-08T11:28:42Z,2018-06-01T02:05:12Z,,
Winterberger Nordhang,,8.4896234,51.1857186,,,,,Germany,Europe,EU,00adef08-1584-4683-8661-c409bc55f1da,2018-05-08T11:28:42Z,2018-06-01T02:05:12Z,,
Winterberglift – Oberkirnach (St. Georgen),,8.32977,48.0851,,,,,Germany,Europe,EU,1c55d952-443d-4b16-b1cc-94c069dee414,2018-05-08T11:28:42Z,2018-06-01T02:05:12Z,,
Winterberglifte – Schonach im Schwarzwald,,8.1520174,48.1311355,,,,,Germany,Europe,EU,c9c8cdec-252a-4987-8873-5c0d42fa45ce,2018-05-08T11:28:42Z,2018-06-01T02:05:13Z,,
Wintergreen Resort,,-78.94174,37.9298844,,,,,USA,,,b74f2c9e-db58-4dc9-94c0-60ac97c80f51,2018-05-08T11:28:42Z,2018-06-01T02:05:13Z,,
Wiriehorn,,7.5169,46.5732,,,,,Switzerland,Europe,,7d969890-0f6a-4b64-9bcb-3259af7f1ffb,2018-05-08T11:28:42Z,2018-06-01T02:05:13Z,,
Wirzweli – Dallenwil,,8.3617958,46.9117907,,,,,Switzerland,Europe,,7fdfe337-c4d5-475f-b8a9-76d54e6f343f,2018-05-08T11:28:42Z,2018-06-01T02:05:13Z,,
Wispile – Gstaad,,7.2908832,46.4663502,,,,,Switzerland,Europe,,1e9e10ef-e968-4a16-9f29-4bc1c78b4b27,2018-05-08T11:28:42Z,2018-06-01T02:05:13Z,,
Wissen,,7.7396765,50.7755474,,,,,Germany,Europe,EU,bae3b844-b6e6-4c4d-a0b1-30f9f0b5b83e,2018-05-08T11:28:42Z,2018-06-01T02:05:13Z,,
Wittenburg (alpincenter Hamburg-Wittenburg) (indoor ski area),,11.0955048,53.5070611,,,,,Germany,Europe,EU,26c5d1f7-a383-44d5-a4d3-0b7ba7504347,2018-05-08T11:28:42Z,2018-06-01T02:05:13Z,,
Witthoh – Emmingen-Liptingen,,8.826667,47.936111,,,,,Germany,Europe,EU,e7a0b1cd-9cc1-4952-a4b7-3e2e7fbc687b,2018-05-08T11:28:42Z,2018-06-01T02:05:13Z,,
Witów,,19.8265185,49.3210546,,,,,Poland,Europe,EU,633101a4-68bc-4f05-91a2-b97a55861f72,2018-05-08T11:28:42Z,2018-06-01T02:05:13Z,,
Wola Nieszkowska,,20.3824989,49.8943053,,,,,Poland,Europe,EU,2c284682-d90c-4a0a-80aa-40171872f902,2018-05-08T11:28:42Z,2018-06-01T02:05:13Z,,
Wolf Creek,,-112.0691697,47.006054,,,,,USA,,,edce75ea-86d1-4def-a3f4-66679c9b076a,2018-05-08T11:28:42Z,2018-06-01T02:05:13Z,,
Wolf Ridge,,-82.9359697,35.1653788,,,,,USA,,,ef1ae54e-3e72-45d8-80ac-60006427e645,2018-05-08T11:28:42Z,2018-06-01T02:05:13Z,,
Wolfsberglift – Siegsdorf,,12.666247,47.817911,,,,,Germany,Europe,EU,6b9281af-7f47-4d96-a0ab-e43c2ed4e9c8,2018-05-08T11:28:42Z,2018-06-01T02:05:13Z,,
Wolfsschlucht – Prüm,,6.43691,50.228526,,,,,Germany,Europe,EU,19e14002-f786-4f40-a68c-8b682bb00427,2018-05-08T11:28:42Z,2018-06-01T02:05:13Z,,
Wolzenalp – Krummenau,,9.1601095,47.2366498,,,,,Switzerland,Europe,,1ed54723-b534-465a-becf-a68a4222450d,2018-05-08T11:28:42Z,2018-06-01T02:05:13Z,,
Woongjin Playdoci Snowdoci (indoor ski area),,126.7442923,37.5000874,,,,,South Korea,,,2d7283d2-2792-4cbf-8f94-527b2b3f207f,2018-05-08T11:28:42Z,2018-06-01T02:05:13Z,,
Wujskie,,22.300152,49.553163,,,,,Poland,Europe,EU,a83fae2e-7e85-4f56-88eb-5e06a56f430a,2018-05-08T11:28:42Z,2018-06-01T02:05:13Z,,
Wunderwiese – Puchberg am Schneeberg,,15.8405481,47.7908132,,,,,Austria,Europe,EU,c9f9fc66-32ec-4c9b-b1d2-c49c0ff503c7,2018-05-08T11:28:42Z,2018-06-01T02:05:13Z,,
Wurmberg – Braunlage,,10.6180779,51.7570345,,,,,Germany,Europe,EU,b55be96b-543d-4fe9-9aad-379bf9a55b6f,2018-05-08T11:28:42Z,2018-06-01T02:05:13Z,,
Wurmsteinlift – Flossenbürg,,12.347656,49.742843,,,,,Germany,Europe,EU,7c2276b5-3291-4394-a57c-cb865a3188fc,2018-05-08T11:28:42Z,2018-06-01T02:05:13Z,,
Wurzeralm – Spital am Pyhrn,,14.2937506,47.6491316,,,,,Austria,Europe,EU,c535f2ba-d482-431c-8c14-aae73165e335,2018-05-08T11:28:42Z,2018-06-01T02:05:13Z,,
Węgierski – Brenna,,18.9709094,49.7108533,,,,,Poland,Europe,EU,62a500fd-2a1a-4e93-8eb1-a8ff02fe7eec,2018-05-08T11:28:42Z,2018-06-01T02:05:13Z,,
Yachiho Kogen,,138.5080174,36.7052466,,,,,Japan,Asia,,9c9ddc90-7cc9-49c8-add3-58ebf429fb36,2018-05-08T11:28:42Z,2018-06-01T02:05:13Z,,
Yakurai,,140.7190262,38.5732623,,,,,Japan,Asia,,79ffcfc1-4590-4ea2-ac61-b9a7565f62f7,2018-05-08T11:28:42Z,2018-06-01T02:05:13Z,,
Yangji Pine Resort,,127.296143,37.211306,,,,,South Korea,,,bd95ae7b-983a-4d01-ac54-9c5f4246c605,2018-05-08T11:28:42Z,2018-06-01T02:05:13Z,,
Yellowstone Club,,-111.3745324,45.2458036,,,,,USA,,,fbde1f9c-fbdd-4676-bcef-7558dc67ee5a,2018-05-08T11:28:42Z,2018-06-01T02:05:13Z,,
Ylläs,,24.2333332,67.5666667,,,,,Finland,Europe,EU,7c6ed68d-138f-46e4-8b7f-66afa29d7bb5,2018-05-08T11:28:42Z,2018-06-01T02:05:13Z,,
Yogoshiyama,,140.987776,40.921682,,,,,Japan,Asia,,9faecf93-6deb-449e-8014-b66b40307174,2018-05-08T11:28:42Z,2018-06-01T02:05:13Z,,
Yokomuki Onsen,,140.2541883,37.6559099,,,,,Japan,Asia,,1569ed58-631d-47aa-adcf-64ef131808c8,2018-05-08T11:28:42Z,2018-06-01T02:05:13Z,,
Yokote Park,,140.5698424,39.32063,,,,,Japan,Asia,,e9f4cc79-6325-4b5a-9f45-18ef2fb08cc3,2018-05-08T11:28:42Z,2018-06-01T02:05:13Z,,
Yokoteyama-Shibutoge,,138.5104185,36.6772672,,,,,Japan,Asia,,15e53e23-715d-484d-b2fa-a37f388605f9,2018-05-08T11:28:42Z,2018-06-01T02:05:13Z,,
YongPyong Resort,,128.6802894,37.6429587,,,,,South Korea,,,d3d2052a-07a1-449f-a460-36fb779acef4,2018-05-08T11:28:42Z,2018-06-01T02:05:13Z,,
Yuzawa Kogen – Nunoba,,138.8024026,36.9425928,,,,,Japan,Asia,,765a03a5-4c6d-4d05-a9a8-c392fb2b0746,2018-05-08T11:28:42Z,2018-06-01T02:05:13Z,,
Yuzawa Nakazato,,138.8458769,36.9169609,,,,,Japan,Asia,,49c51fe6-3397-43e1-91bf-c59c02d2b166,2018-05-08T11:28:42Z,2018-06-01T02:05:13Z,,
Yuzawa Park,,138.859679,36.9248929,,,,,Japan,Asia,,29531e43-8854-4a1c-a9a6-2964f23721fa,2018-05-08T11:28:42Z,2018-06-01T02:05:13Z,,
Zaarour,,35.7988048,33.9219709,,,,,Lebanon,Asia,,6938f20a-4e9c-4255-8a06-489fa184dd3f,2018-05-08T11:28:42Z,2018-06-01T02:05:13Z,,
Zadov – Churáňov,,13.6270245,49.0714591,,,,,Czech Republic,Europe,EU,51f680d3-6b18-43db-aba0-6ca33c66bf78,2018-05-08T11:28:42Z,2018-06-01T02:05:13Z,,
Zadov – Kobyla,,13.6317093,49.0666357,,,,,Czech Republic,Europe,EU,585690e4-dba7-40d7-8802-380615673621,2018-05-08T11:28:42Z,2018-06-01T02:05:13Z,,
Zadział – Nowy Targ,,20.0283482,49.5069556,,,,,Poland,Europe,EU,a8b13d41-0118-4d6a-9a01-d7e9a73f2d1b,2018-05-08T11:28:42Z,2018-06-01T02:05:13Z,,
Wapiti Ski Hill – Elkford,,-114.9393082,50.0217895,,,,,Canada,North America,,a3e8a09b-7a89-4862-935f-248ec0abf912,2018-05-08T11:28:41Z,2018-06-01T02:05:13Z,,
Wapiti Valley,,-104.4598692,53.2332362,,,,,Canada,North America,,a5c222f8-1505-4273-8a44-97277e4f84d0,2018-05-08T11:28:41Z,2018-06-01T02:05:13Z,,
Ward Hill – Shrewsbury,,-71.6829768,42.3014833,,,,,USA,,,42536885-d544-47c1-a662-5c1a08b770d3,2018-05-08T11:28:41Z,2018-06-01T02:05:13Z,,
Warth,,10.18348,47.25759,,,,,Austria,Europe,EU,da1dd1eb-a0e1-4062-8fd9-0f29fac86bb0,2018-05-08T11:28:41Z,2018-06-01T02:05:13Z,,
Wasen im Emmental,,7.7446642,47.0284465,,,,,Switzerland,Europe,,afd4e80f-7616-4034-8497-a5891f552ef9,2018-05-08T11:28:41Z,2018-06-01T02:05:13Z,,
Wasenalp (Simplon Pass),,8.0519164,46.2823091,,,,,Switzerland,Europe,,2f4a900e-3fc1-4497-bcb8-e4a8119d709d,2018-05-08T11:28:41Z,2018-06-01T02:05:13Z,,
Wasserkuppe,,9.9333333,50.5,,,,,Germany,Europe,EU,fed32fd8-c805-43c1-8d9c-ae4fee6c638f,2018-05-08T11:28:41Z,2018-06-01T02:05:13Z,,
Wasserngrat – Gstaad,,7.3238032,46.4574153,,,,,Switzerland,Europe,,f38ab1ca-955f-4813-8bbe-4c9e100ec594,2018-05-08T11:28:41Z,2018-06-01T02:05:13Z,,
Waterville Valley,,-71.4995204,43.9500695,,,,,USA,,,86db2491-b4de-4f1f-8f11-eb0753d68cff,2018-05-08T11:28:41Z,2018-06-01T02:05:13Z,,
Watles – Malles Venosta (Mals),,10.4875,46.724722,,,,,Italy,Europe,EU,a8583af7-a1b9-481b-83f8-7d43b5e117e5,2018-05-08T11:28:41Z,2018-06-01T02:05:13Z,,
Weardale Ski Club,,-2.1635882,54.7020507,,,,,United Kingdom,Europe,EU,ff602375-af36-479b-8311-e6f48ba97ec5,2018-05-08T11:28:41Z,2018-06-01T02:05:13Z,,
Wegscheid,,13.7859827,48.6006244,,,,,Germany,Europe,EU,bb150146-ec37-4364-8b16-2cde15431d8f,2018-05-08T11:28:41Z,2018-06-01T02:05:14Z,,
Wehingen,,8.7909078,48.1477421,,,,,Germany,Europe,EU,3a916bea-2b94-4dc4-9f09-f3e59b2ba5fc,2018-05-08T11:28:41Z,2018-06-01T02:05:14Z,,
Wehrhalden,,8.010866,47.7018067,,,,,Germany,Europe,EU,9e66dcbf-3df7-42f1-aec7-6c2c7bd6d96e,2018-05-08T11:28:41Z,2018-06-01T02:05:14Z,,
Weikersberg – Königsbronn,,10.0779978,48.7299223,,,,,Germany,Europe,EU,09fa50d1-201d-4a99-a564-80618e33ee41,2018-05-08T11:28:41Z,2018-06-01T02:05:14Z,,
Weinebene – Frantschach-Sankt Gertraud,,15.0123562,46.8416204,,,,,Austria,Europe,EU,9979b364-3be0-45b6-a393-9aa5f106f8ec,2018-05-08T11:28:41Z,2018-06-01T02:05:14Z,,
Weissbriach (Gitschtal),,13.2531933,46.6868257,,,,,Austria,Europe,EU,7811a33c-4b92-45c1-88f6-c519832abd2c,2018-05-08T11:28:41Z,2018-06-01T02:05:14Z,,
Weissee Gletscherwelt – Uttendorf,,12.6244085,47.1695521,,,,,Austria,Europe,EU,c8188d7f-b6fe-401e-8b49-d46dfc82ae54,2018-05-08T11:28:41Z,2018-06-01T02:05:14Z,,
Weissenbach (Alpinwellt),,11.8764034,46.9499562,,,,,Italy,Europe,EU,5d502b9e-03f1-4798-9ea5-bea75e0ef396,2018-05-08T11:28:41Z,2018-06-01T02:05:14Z,,
Weißbach an der Alpenstraße (Schneizlreuth),,12.771278,47.717441,,,,,Germany,Europe,EU,4c0c2598-fee3-4796-90e1-f6f4d3aee864,2018-05-08T11:28:41Z,2018-06-01T02:05:14Z,,
Weißer Stein – Hellenthal,,6.373502,50.4096868,,,,,Germany,Europe,EU,e7647508-1063-4069-bb95-55bfa1d8f1d4,2018-05-08T11:28:41Z,2018-06-01T02:05:14Z,,
Welli Hilli Park,,128.24782,37.491028,,,,,South Korea,,,30d1e1ca-994f-4fdd-aba9-339e19949b6f,2018-05-08T11:28:41Z,2018-06-01T02:05:14Z,,
Wenatchee – Mission Ridge,,-120.3997706,47.2924455,,,,,USA,,,90d32cad-4089-4820-ae44-39974b3cf4f8,2018-05-08T11:28:41Z,2018-06-01T02:05:14Z,,
Wendelstein – Brannenburg,,12.0120075,47.7028486,,,,,Germany,Europe,EU,e2bbb412-805b-41bb-bcb8-1a50b4d233a7,2018-05-08T11:28:41Z,2018-06-01T02:05:14Z,,
Wengen,,7.9215399,46.6054335,,,,,Switzerland,Europe,,25a70222-cf1e-4f93-897a-2516330b805e,2018-05-08T11:28:41Z,2018-06-01T02:05:14Z,,
Wengen (Weitnau),,10.1466374,47.6763728,,,,,Germany,Europe,EU,299a269f-e5db-4cad-a207-a777825cd09e,2018-05-08T11:28:41Z,2018-06-01T02:05:14Z,,
Wenigzell,,15.785673,47.426154,,,,,Austria,Europe,EU,0118c2c8-68f8-4c21-a51c-964091ba5fac,2018-05-08T11:28:41Z,2018-06-01T02:05:14Z,,
Wentworth,,-74.366667,45.8,,,,,Canada,North America,,47bc4034-29bb-4897-a395-f1ee43a9155d,2018-05-08T11:28:41Z,2018-06-01T02:05:14Z,,
Werda,,12.3055794,50.4382647,,,,,Germany,Europe,EU,18cf32ee-1443-4d5a-92db-67775b1cfa86,2018-05-08T11:28:41Z,2018-06-01T02:05:14Z,,
Werfenweng,,13.2568035,47.4615959,,,,,Austria,Europe,EU,dabf4991-acd6-44f6-b10c-8902a13a2a10,2018-05-08T11:28:41Z,2018-06-01T02:05:14Z,,
Wermelskirchen-Töckelhausen,,7.2472506,51.151877,,,,,Germany,Europe,EU,f5522b31-7fd2-4e69-bd3c-a4c84f34444c,2018-05-08T11:28:41Z,2018-06-01T02:05:14Z,,
West Mountain,,-111.7882659,40.0607872,,,,,USA,,,f23d52df-f57f-4607-b23e-065bcd7ab3db,2018-05-08T11:28:41Z,2018-06-01T02:05:14Z,,
Westerburg,,7.9714527,50.5624894,,,,,Germany,Europe,EU,ab7a707e-60f3-4c49-be97-91a3fa4e43f9,2018-05-08T11:28:41Z,2018-06-01T02:05:14Z,,
Westernberg (Ruhpolding),,12.63849,47.7643,,,,,Germany,Europe,EU,1b490a02-c191-4038-81df-af2359c62101,2018-05-08T11:28:41Z,2018-06-01T02:05:14Z,,
Wetterstein lifts (Wettersteinbahnen) – Ehrwald,,10.9290126,47.4071446,,,,,Austria,Europe,EU,de8de103-013b-460f-accb-8a1198f11380,2018-05-08T11:28:41Z,2018-06-01T02:05:14Z,,
Whakapapa,,175.556667,-39.2368965,,,,,New Zealand,Oceania,,5e22f18b-48c9-45e4-9dcb-d6d16351e687,2018-05-08T11:28:41Z,2018-06-01T02:05:14Z,,
Whaleback,,-72.180265,43.601705,,,,,USA,,,b35bd37b-8ced-4067-82a0-b6fac59ac608,2018-05-08T11:28:41Z,2018-06-01T02:05:14Z,,
Whispering Pines – Worsley,,-119.3917278,56.602427,,,,,Canada,North America,,a775d58d-eb2b-43a8-b829-31a20ca5ad5a,2018-05-08T11:28:41Z,2018-06-01T02:05:14Z,,
Whistler Blackcomb,,-122.9486474,50.1149639,,,,,Canada,North America,,8f742ace-a640-4ba4-ab75-6837c113926f,2018-05-08T11:28:41Z,2018-06-01T02:05:14Z,,
White Pass,,-121.389528,46.6387257,,,,,USA,,,dccaa9a3-56fc-454d-a925-6c1d981f1287,2018-05-08T11:28:41Z,2018-06-01T02:05:14Z,,
White Pine – Pinedale,,-109.7586597,42.9778494,,,,,USA,,,e3aa69e6-f7b3-4415-b998-912149223829,2018-05-08T11:28:41Z,2018-06-01T02:05:14Z,,
White Valley Matsubara,,132.2355949,34.644295,,,,,Japan,Asia,,42720adb-50dc-4c15-9e52-07a6a05f3373,2018-05-08T11:28:41Z,2018-06-01T02:05:14Z,,
Whiteface – Lake Placid,,-73.9026456,44.3658804,,,,,USA,,,4e82e17f-80a7-4c31-b1f9-ea040fd17c07,2018-05-08T11:28:41Z,2018-06-01T02:05:14Z,,
Whitefish Mountain Resort,,-114.3503233,48.4805905,,,,,USA,,,3bdd7f6f-9ff2-4e82-baa3-0a8bac1631da,2018-05-08T11:28:41Z,2018-06-01T02:05:14Z,,
Whitetail Ridge – Fort McCoy,,-90.7214354,44.0218446,,,,,USA,,,553f464d-1097-4d2d-a11c-b128eb97a875,2018-05-08T11:28:41Z,2018-06-01T02:05:14Z,,
Whitewater – Nelson,,-117.14653,49.4443,,,,,Canada,North America,,9b5dfb6e-cb4d-4b4f-bfe7-d882acb93ef2,2018-05-08T11:28:41Z,2018-06-01T02:05:14Z,,
Wildcat Mountain,,-71.2014625,44.2589548,,,,,USA,,,18f568eb-b312-4f6c-acfb-d7fa82d4edc4,2018-05-08T11:28:41Z,2018-06-01T02:05:14Z,,
Wildewiese – Sundern,,7.994984,51.238889,,,,,Germany,Europe,EU,ca6a234f-0e15-4417-bef9-03c5f30975d2,2018-05-08T11:28:41Z,2018-06-01T02:05:14Z,,
Wildkogel – Neukirchen,,12.2976376,47.2856937,,,,,Austria,Europe,EU,471ad719-937d-4363-a442-eb0a8b50e6bf,2018-05-08T11:28:41Z,2018-06-01T02:05:14Z,,
Wildmooslift – Oberau (Berchtesgaden),,13.079205,47.664645,,,,,Germany,Europe,EU,6fac7053-cf0c-4cce-bc22-117b33dbc0ce,2018-05-08T11:28:41Z,2018-06-01T02:05:14Z,,
Villarrica – Pucón,,-71.9776285,-39.2722541,,,,,Chile,South America,,5a97482d-86b1-440a-962a-492d859979fd,2018-05-08T11:28:40Z,2018-06-01T02:05:14Z,,
Villars,,7.0550134,46.2984285,,,,,Switzerland,Europe,,3ffc661e-a8b3-4f2e-8f57-7058dbca61cd,2018-05-08T11:28:40Z,2018-06-01T02:05:14Z,,
Villeneuve-la-Salle,,6.5540992,44.9480524,,,,,France,Europe,EU,b5c71c29-4bb4-4152-a361-685bf593c469,2018-05-08T11:28:40Z,2018-06-01T02:05:14Z,,
Vilstabacken – Eskiltuna,,16.5122926,59.3494975,,,,,Sweden,Europe,EU,4c763e51-fdff-4fac-99a2-76861a6a3474,2018-05-08T11:28:40Z,2018-06-01T02:05:14Z,,
Vimka – Viimsi Mäepark,,24.8407507,59.5187735,,,,,Estonia,Europe,EU,dc9096d2-9cd3-4a88-95cf-989270d778bd,2018-05-08T11:28:40Z,2018-06-01T02:05:14Z,,
Visalaje,,18.5274351,49.5194798,,,,,Czech Republic,Europe,EU,3ecc15b6-4df4-40ab-9e77-c90bca3089c8,2018-05-08T11:28:40Z,2018-06-01T02:05:14Z,,
Vista Ridge,,-111.1339164,56.6617179,,,,,Canada,North America,,9281c661-2234-419e-8974-88b304782192,2018-05-08T11:28:40Z,2018-06-01T02:05:14Z,,
Vitanová,,19.7316443,49.3542201,,,,,Slovakia,Europe,EU,67642041-005c-4b00-9b70-bd69680b657d,2018-05-08T11:28:40Z,2018-06-01T02:05:14Z,,
Vitosha – Sofia,,23.251389,42.653889,,,,,Bulgaria,Europe,EU,81295268-488a-4c9b-b0a6-9576e60e26b0,2018-05-08T11:28:40Z,2018-06-01T02:05:14Z,,
Vitsi,,21.3,40.583333,,,,,Greece,Europe,EU,502f68bf-9efe-4d33-a432-48ca5041cb83,2018-05-08T11:28:40Z,2018-06-01T02:05:14Z,,
Vlašić,,17.6663889,44.3027778,,,,,Bosnia and Herzegovina,Europe,,47155316-0623-48d0-9758-b3381fe11665,2018-05-08T11:28:40Z,2018-06-01T02:05:14Z,,
Voevodyno,,22.6446214,48.6617309,,,,,Ukraine,Europe,,175cbbb3-7553-4f36-9b92-9911a1b3c6c2,2018-05-08T11:28:40Z,2018-06-01T02:05:15Z,,
Vogel – Bohinj,,13.8125,46.2383333,,,,,Slovenia,Europe,EU,4de32ac1-d73d-45b2-b62d-f6399baa1fc2,2018-05-08T11:28:40Z,2018-06-01T02:05:15Z,,
Vogelskopf (Baiersbronn),,8.221829,48.5556519,,,,,Germany,Europe,EU,41892264-dd3b-491f-8c07-8c4f24c704d0,2018-05-08T11:28:40Z,2018-06-01T02:05:15Z,,
Vogling (Siegsdorf),,12.6996445,47.8279462,,,,,Germany,Europe,EU,f818568d-72fc-4d1b-85c8-a8c34b440e8d,2018-05-08T11:28:40Z,2018-06-01T02:05:15Z,,
Voineasa,,23.963603,45.4154928,,,,,Romania,Europe,EU,cb3a0bdf-6b93-4228-b5ed-b5d707b269c9,2018-05-08T11:28:40Z,2018-06-01T02:05:15Z,,
Voithenberg – Furth im Wald,,12.8059478,49.332418,,,,,Germany,Europe,EU,852ea102-7484-4589-970b-5e6e8b4403cf,2018-05-08T11:28:40Z,2018-06-01T02:05:15Z,,
Vojsko,,13.9038857,46.022603,,,,,Slovenia,Europe,EU,2a2bce5c-20a0-4211-9aaa-5a6bca3bfe5e,2018-05-08T11:28:40Z,2018-06-01T02:05:15Z,,
Voras – Kaimaktsalan,,21.7869444,40.9308333,,,,,Greece,Europe,EU,ac13e0a7-17fe-40ba-a89d-3bf8cd264bd5,2018-05-08T11:28:40Z,2018-06-01T02:05:15Z,,
Vorauf,,12.6913668,47.8172593,,,,,Germany,Europe,EU,0f898e9b-e51f-4dcb-87ec-099c45cf5e00,2018-05-08T11:28:40Z,2018-06-01T02:05:15Z,,
Vorderthal – Skilift Wägital,,8.9008397,47.1202584,,,,,Switzerland,Europe,,7a6a6dad-2140-440d-930b-445d3c4bce26,2018-05-08T11:28:40Z,2018-06-01T02:05:15Z,,
Vorobyovy Gory – Moscow,,37.5418147,55.7113252,,,,,Central Russia,,,6de1019d-d92c-42a5-9930-3f9a533a2aca,2018-05-08T11:28:40Z,2018-06-01T02:05:15Z,,
Voss Resort,,6.4197964,60.653902,,,,,Norway,Europe,,667271ec-40f6-42d6-a767-24b0dc986c77,2018-05-08T11:28:40Z,2018-06-01T02:05:15Z,,
Vraclávek,,17.5616319,50.126243,,,,,Czech Republic,Europe,EU,230296e9-8523-4c4e-a593-e134d95650f8,2018-05-08T11:28:40Z,2018-06-01T02:05:15Z,,
Vrchlabí – Kněžický vrch,,15.6026894,50.6359494,,,,,Czech Republic,Europe,EU,fe91f825-f829-4c01-9427-8410ba201fbe,2018-05-08T11:28:40Z,2018-06-01T02:05:15Z,,
Vrátna,,19.04219,49.20869,,,,,Slovakia,Europe,EU,0e02ca6e-90d1-48af-8a2c-d29d35ecd365,2018-05-08T11:28:40Z,2018-06-01T02:05:15Z,,
Vrådal,,8.4792349,59.327205,,,,,Norway,Europe,,ff3eface-6975-465f-872c-8b2281011223,2018-05-08T11:28:40Z,2018-06-01T02:05:15Z,,
Vurmovka,,15.511498,50.6856137,,,,,Czech Republic,Europe,EU,49b30b53-5a9d-45b5-8734-427682b52b48,2018-05-08T11:28:40Z,2018-06-01T02:05:15Z,,
Vučići – Ogulin,,15.217028,45.2524386,,,,,Croatia,Europe,EU,b0b5974c-d83d-4d84-93f4-ad0135b5a534,2018-05-08T11:28:40Z,2018-06-01T02:05:15Z,,
Vyshka,,22.690647,48.9424218,,,,,Ukraine,Europe,,ab32e2dc-6e99-4112-9268-efecdd186ee6,2018-05-08T11:28:40Z,2018-06-01T02:05:15Z,,
Vårdkasen – Härnösand,,17.9333333,62.6166667,,,,,Sweden,Europe,EU,405439cc-0981-4dd8-9f18-4449f6106682,2018-05-08T11:28:40Z,2018-06-01T02:05:15Z,,
Vögelinsegg – Speicher,,9.4362538,47.4156769,,,,,Switzerland,Europe,,357f1ebf-0aec-43e6-a99d-d528de325581,2018-05-08T11:28:40Z,2018-06-01T02:05:15Z,,
Vögelsberg (Wattens),,11.58849,47.27342,,,,,Austria,Europe,EU,315a8615-16d0-41ac-815e-d5151c781b29,2018-05-08T11:28:40Z,2018-06-01T02:05:15Z,,
Wachtberglifts – Weyregg am Attersee,,13.5807867,47.8887907,,,,,Austria,Europe,EU,e472c774-49bb-4cf8-902b-2aefbf643cd9,2018-05-08T11:28:40Z,2018-06-01T02:05:15Z,,
Wachusett Mountain,,-71.8870425,42.4891723,,,,,USA,,,bff0e7ab-c80b-437a-b0f1-6bdbbe4b4157,2018-05-08T11:28:40Z,2018-06-01T02:05:15Z,,
Wackersberg,,11.5464219,47.7349727,,,,,Germany,Europe,EU,b9ff82df-be54-4f4d-80a8-ad0197689842,2018-05-08T11:28:40Z,2018-06-01T02:05:15Z,,
Wagnershalde – Meßstetten,,8.9526074,48.1826451,,,,,Germany,Europe,EU,769f3ea4-7358-4132-9fff-c3009542069c,2018-05-08T11:28:40Z,2018-06-01T02:05:15Z,,
Wagrain,,13.2961384,47.3335007,,,,,Austria,Europe,EU,6a597447-e0ec-4f98-a851-7bb57f5f0228,2018-05-08T11:28:40Z,2018-06-01T02:05:15Z,,
Waldhäuser (Neuschönau),,13.4692172,48.9277372,,,,,Germany,Europe,EU,06037918-0b15-4749-a342-7bd1b13bcb94,2018-05-08T11:28:40Z,2018-06-01T02:05:15Z,,
Waldrastlift – Ehenbichl,,10.7033181,47.4725694,,,,,Austria,Europe,EU,40108802-bb0c-43c2-b468-7dadced73ab8,2018-05-08T11:28:40Z,2018-06-01T02:05:15Z,,
Waldskilift – Schnittlingen (Böhmenkirch),,9.882255,48.674455,,,,,Germany,Europe,EU,e9d4c685-02f4-4542-a295-8da19af533bb,2018-05-08T11:28:40Z,2018-06-01T02:05:15Z,,
Waldskilift – Wald (Faistenau),,13.2482108,47.7920506,,,,,Austria,Europe,EU,bc1e1e51-ffb2-4f6f-afff-61c03a46612a,2018-05-08T11:28:40Z,2018-06-01T02:05:15Z,,
Waldsportpark Ebersberg,,11.9593387,48.0933703,,,,,Germany,Europe,EU,9d2eaac0-82c1-481f-80db-092d9348f431,2018-05-08T11:28:40Z,2018-06-01T02:05:15Z,,
Walenstadtberg,,9.482553,46.969447,,,,,Switzerland,Europe,,32266f05-f021-43ae-8495-246fdfd6a27d,2018-05-08T11:28:40Z,2018-06-01T02:05:15Z,,
Wallberg – Rottach-Egern,,11.7970124,47.665876,,,,,Germany,Europe,EU,ce81f4ae-a158-4d21-b03c-c4d00cf60f20,2018-05-08T11:28:40Z,2018-06-01T02:05:15Z,,
Walmendingerhorn,,10.128402,47.326717,,,,,Austria,Europe,EU,d5f52022-b171-4d50-bc8f-30baba4cc176,2018-05-08T11:28:40Z,2018-06-01T02:05:15Z,,
Waltensburg,,9.1170754,46.7767213,,,,,Switzerland,Europe,,50e9a126-39e7-4a53-949b-7fd94483363c,2018-05-08T11:28:40Z,2018-06-01T02:05:15Z,,
Wangs,,9.4484028,47.0299988,,,,,Switzerland,Europe,,895b71b5-03f8-4bb6-aadd-80a9fa7f7652,2018-05-08T11:28:40Z,2018-06-01T02:05:15Z,,
Wanlong,,115.398545,40.970114,,,,,China,Asia,,52fc1b65-a65f-4fa0-8eaa-fff4558bb798,2018-05-08T11:28:40Z,2018-06-01T02:05:15Z,,
Wanlongbayi,,116.164199,39.870433,,,,,China,Asia,,a81cabeb-c4dc-4a08-a135-1b894e865ff1,2018-05-08T11:28:40Z,2018-06-01T02:05:15Z,,
Valfréjus,,6.6522236,45.1726694,,,,,France,Europe,EU,9fa270aa-0827-4e0c-90ec-cb3d5acb6e27,2018-05-08T11:28:39Z,2018-06-01T02:05:15Z,,
Valgrande Pajares,,-5.7757582,42.9779751,,,,,Spain,Europe,EU,d17aae6e-5fe9-49a4-bf13-7f4bfe5f18d9,2018-05-08T11:28:39Z,2018-06-01T02:05:15Z,,
Valgrisenche,,7.0645059,45.630219,,,,,Italy,Europe,EU,d199593d-ce45-4b3f-b2c5-26159823907d,2018-05-08T11:28:39Z,2018-06-01T02:05:15Z,,
Vall de Núria,,2.1527838,42.3965825,,,,,Spain,Europe,EU,38d1e3e9-d526-481e-a805-1071a380fdf2,2018-05-08T11:28:39Z,2018-06-01T02:05:15Z,,
Valle Hermoso,,-72.0724444,-36.6274755,,,,,Chile,South America,,d822e3cb-b8de-4297-bfe0-5f22c4900722,2018-05-08T11:28:39Z,2018-06-01T02:05:15Z,,
Valle Nevado,,-70.2489324,-33.3538494,,,,,Chile,South America,,330971e2-93ed-42de-a468-f6d0110ad705,2018-05-08T11:28:39Z,2018-06-01T02:05:15Z,,
Valle di Casies),,12.2124548,46.8147485,,,,,Italy,Europe,EU,e66967f4-4a2d-456c-8b22-d1123c33f388,2018-05-08T11:28:39Z,2018-06-01T02:05:15Z,,
Vallecitos,,-68.866425,-32.8440694,,,,,Argentina,South America,,76288a1b-db28-4002-8036-216a6fb63ddf,2018-05-08T11:28:39Z,2018-06-01T02:05:15Z,,
Vallefura Pescocostanzo,,14.0584139,41.8877661,,,,,Italy,Europe,EU,c06d05ab-dc0a-4f24-b646-f99793ec6e13,2018-05-08T11:28:39Z,2018-06-01T02:05:15Z,,
Valley Ski Hill – Alliance,,-111.823844,52.413391,,,,,Canada,North America,,ce832a0d-5703-4546-9c33-f93ae9c52ae3,2018-05-08T11:28:39Z,2018-06-01T02:05:15Z,,
Valloire,,6.428733,45.165292,,,,,France,Europe,EU,0b9cb23b-e35a-49f2-8bbe-4a997e034b98,2018-05-08T11:28:39Z,2018-06-01T02:05:15Z,,
Vallouise,,6.488418,44.846704,,,,,France,Europe,EU,5fa5f37f-8e47-4bba-a7f0-0c735f7c4e0d,2018-05-08T11:28:39Z,2018-06-01T02:05:16Z,,
Vallter 2000,,2.2647318,42.4269873,,,,,Spain,Europe,EU,b75ac6e4-3942-4f5a-84b0-39e887ad31a4,2018-05-08T11:28:39Z,2018-06-01T02:05:16Z,,
Vallåsen,,13.1073184,56.3850848,,,,,Sweden,Europe,EU,abc59f97-b6e1-4cb2-b9f8-7074f33950ab,2018-05-08T11:28:39Z,2018-06-01T02:05:16Z,,
Valmalenco – Alpe Palù,,9.8660639,46.2919107,,,,,Italy,Europe,EU,c0989efe-aa87-4a1b-b856-c945c59a10ea,2018-05-08T11:28:39Z,2018-06-01T02:05:16Z,,
Vals,,11.5340763,47.0446689,,,,,Austria,Europe,EU,2ecb9e97-86d5-43d5-8c4e-f2606195e494,2018-05-08T11:28:39Z,2018-06-01T02:05:16Z,,
Vals 3000 – Dachberg,,9.1034132,46.5918871,,,,,Switzerland,Europe,,e62ef084-0b3d-43ed-8ce8-6e421295645b,2018-05-08T11:28:39Z,2018-06-01T02:05:16Z,,
Valtenberg – Valtenhäuser (Neukirch,,14.2985592,51.0986997,,,,,Germany,Europe,EU,38c756c7-6a61-41e5-b421-64d06af37fa7,2018-05-08T11:28:39Z,2018-06-01T02:05:16Z,,
Valtgeva – Sedrun,,8.7707451,46.6882942,,,,,Switzerland,Europe,,8daa4cdb-39e6-4614-a254-bc1ceba014a5,2018-05-08T11:28:39Z,2018-06-01T02:05:16Z,,
Valtournenche – Matterhorn,,7.6584519,45.976575,,,,,Switzerland,Europe,,099fc31f-6ba3-4687-b9ca-a97d30c53e58,2018-05-08T11:28:39Z,2018-06-01T02:05:16Z,,
Vargen,,12.9365487,60.6486508,,,,,Sweden,Europe,EU,6495aa33-ff63-444d-ae63-0c8fe30f8235,2018-05-08T11:28:39Z,2018-06-01T02:05:16Z,,
Varingskollen,,10.8333333,60.1,,,,,Norway,Europe,,ee1970bd-c78b-4d1a-a4aa-6b5b15b1e264,2018-05-08T11:28:39Z,2018-06-01T02:05:16Z,,
Vars,,6.6799921,44.5726618,,,,,France,Europe,EU,66abba35-0e57-4335-bcd6-5ba61a97a266,2018-05-08T11:28:39Z,2018-06-01T02:05:16Z,,
Vasilitsa,,21.0833333,40.0333333,,,,,Greece,Europe,EU,00da7b75-d37c-4528-a6c7-f9af052afd36,2018-05-08T11:28:39Z,2018-06-01T02:05:16Z,,
Vassfjellet – Klæbu,,10.4011045,63.2650725,,,,,Norway,Europe,,a84461c4-81d5-4ba3-9acd-7c8481e80dea,2018-05-08T11:28:39Z,2018-06-01T02:05:16Z,,
Vauplane – Soleilhas,,6.630054,43.881969,,,,,France,Europe,EU,6ec64f7d-8c46-474e-a548-bda1b15a2153,2018-05-08T11:28:39Z,2018-06-01T02:05:16Z,,
Velebno – Baške Oštarije,,15.1723605,44.5270167,,,,,Croatia,Europe,EU,1caa337c-fdb4-4a29-b48e-20566f30be14,2018-05-08T11:28:39Z,2018-06-01T02:05:16Z,,
Velika Planina,,14.6666666,46.3,,,,,Slovenia,Europe,EU,d1a8311f-5692-4564-b08c-4be1fd18a68c,2018-05-08T11:28:39Z,2018-06-01T02:05:16Z,,
Velká Úpa,,15.7679004,50.6902497,,,,,Czech Republic,Europe,EU,b20f099f-1afd-4131-9827-b9acb2eeeb13,2018-05-08T11:28:39Z,2018-06-01T02:05:16Z,,
Velykyj,,24.2656219,50.4058638,,,,,Ukraine,Europe,,be64dcdb-180d-4d2c-be79-6fd299aa866e,2018-05-08T11:28:39Z,2018-06-01T02:05:16Z,,
Vemdalsskalet,,13.8620434,62.4447051,,,,,Sweden,Europe,EU,ae3f6e60-c614-4103-ba8e-b1487d7e0085,2018-05-08T11:28:39Z,2018-06-01T02:05:16Z,,
Venet – Landeck,,10.6666667,47.15,,,,,Austria,Europe,EU,9f2dc44b-7a9a-49d4-b259-52e22fa6e599,2018-05-08T11:28:39Z,2018-06-01T02:05:16Z,,
Vent,,10.9147139,46.8600727,,,,,Austria,Europe,EU,9dfbe9dd-9775-46bb-bb5f-34788114ff7c,2018-05-08T11:28:39Z,2018-06-01T02:05:16Z,,
Ventron,,6.870951,47.940644,,,,,France,Europe,EU,76239328-7acc-4314-a044-7f846e5c47aa,2018-05-08T11:28:39Z,2018-06-01T02:05:16Z,,
Vercorin,,7.530556,46.257222,,,,,Switzerland,Europe,,f650ae9e-4072-41fb-a61c-f0e75e643e53,2018-05-08T11:28:39Z,2018-06-01T02:05:16Z,,
Verno – Florina,,21.385556,40.649167,,,,,Greece,Europe,EU,745d51d9-d3c2-40ae-a267-240d93efd528,2018-05-08T11:28:39Z,2018-06-01T02:05:16Z,,
Vernířovice,,17.1300037,50.0317083,,,,,Czech Republic,Europe,EU,0ff0db1e-5d02-4dd5-b236-8fbf037c4e1a,2018-05-08T11:28:39Z,2018-06-01T02:05:16Z,,
Vestvatn,,14.9803221,67.074694,,,,,Norway,Europe,,6ed5b912-1d10-4e68-a222-e27c6a251a3b,2018-05-08T11:28:39Z,2018-06-01T02:05:16Z,,
Veterans Memorial – Franklin,,-71.4135237,42.0938974,,,,,USA,,,ec49302a-25dd-4cb1-bef3-d5471b2c5adf,2018-05-08T11:28:39Z,2018-06-01T02:05:16Z,,
Veysonnaz,,7.3379757,46.1957548,,,,,Switzerland,Europe,,df2968d6-9f63-4460-beb3-fd8ea34a0d7e,2018-05-08T11:28:39Z,2018-06-01T02:05:16Z,,
Veľká Rača,,18.968879,49.4132942,,,,,Slovakia,Europe,EU,73855097-6953-4af0-bb15-970de3e7e512,2018-05-08T11:28:39Z,2018-06-01T02:05:16Z,,
Veľké Ostré,,18.7941382,49.2906536,,,,,Slovakia,Europe,EU,03f3c702-f579-4dea-a6b1-83ca582526c2,2018-05-08T11:28:39Z,2018-06-01T02:05:16Z,,
Via Lattea – Sestriere,,6.8815184,44.9560752,,,,,Italy,Europe,EU,903346ad-b51b-4118-ade5-a719576a39e8,2018-05-08T11:28:39Z,2018-06-01T02:05:16Z,,
Vichères (Liddes),,7.1665665,45.9966472,,,,,Switzerland,Europe,,853e4990-d9bf-4d51-b948-a89330b4d8c0,2018-05-08T11:28:39Z,2018-06-01T02:05:16Z,,
Viehberg – Sandl,,14.6233284,48.5603229,,,,,Austria,Europe,EU,67205e52-c91a-4c81-9c60-f5cf70b149dd,2018-05-08T11:28:39Z,2018-06-01T02:05:16Z,,
Vigiljoch (Monte San Vigilio) – Lana,,11.100278,46.647361,,,,,Italy,Europe,EU,ce6f023a-84fb-49ac-8b90-0be74a278ea8,2018-05-08T11:28:39Z,2018-06-01T02:05:16Z,,
Vigla Pisoderi,,21.2481307,40.7862908,,,,,Greece,Europe,EU,d85dfba3-4ed1-463d-adcc-61ecfda6de89,2018-05-08T11:28:39Z,2018-06-01T02:05:16Z,,
Vihti Ski Center,,24.3675036,60.3807384,,,,,Finland,Europe,EU,bbb30339-019d-4fb9-9bbb-a891c6679073,2018-05-08T11:28:39Z,2018-06-01T02:05:16Z,,
Villa Olivia – Bartlett,,-88.2199456,42.0127618,,,,,USA,,,8119dbd7-39d2-4118-8a4e-ef328bf199b4,2018-05-08T11:28:39Z,2018-06-01T02:05:16Z,,
Villar d'Arène,,6.335053,45.042959,,,,,France,Europe,EU,99b9af7f-7fdb-4f95-8f56-1906200a4e46,2018-05-08T11:28:39Z,2018-06-01T02:05:16Z,,
Törbel – Moosalp,,7.829722,46.251389,,,,,Switzerland,Europe,,17e0e17a-1edd-4cd1-9ae1-9fb3090aeff5,2018-05-08T11:28:37Z,2018-06-01T02:05:16Z,,
U Bambuchu,,18.2971934,49.3610159,,,,,Czech Republic,Europe,EU,41bbc62b-ac8f-4eaa-b8b7-1b93644659fd,2018-05-08T11:28:37Z,2018-06-01T02:05:16Z,,
U Gruloka – Poronin,,20.0115728,49.3332004,,,,,Poland,Europe,EU,71ae1ec2-3d0b-4961-bb74-b60a9ff8da16,2018-05-08T11:28:37Z,2018-06-01T02:05:16Z,,
U Horejšů,,13.6248954,49.0683408,,,,,Czech Republic,Europe,EU,53dfa0ec-1b5c-4bd8-ac2e-9174d883c12c,2018-05-08T11:28:37Z,2018-06-01T02:05:16Z,,
U hřbitova – Černý Důl,,15.7133589,50.6364282,,,,,Czech Republic,Europe,EU,fd2deb46-09c8-4416-9491-a529b59dfdf7,2018-05-08T11:28:37Z,2018-06-01T02:05:16Z,,
U Čápa – Kořenov-Příchovice,,15.3464259,50.7397808,,,,,Czech Republic,Europe,EU,c564102d-4fb8-4e1e-bfcd-3a8034187778,2018-05-08T11:28:37Z,2018-06-01T02:05:16Z,,
Ukko-Koli,,29.7999999,63.1,,,,,Finland,Europe,EU,a546f02f-825b-4569-a732-ff7869000e26,2018-05-08T11:28:37Z,2018-06-01T02:05:16Z,,
Ulovka – Jamnik,,14.240368,45.9807697,,,,,Slovenia,Europe,EU,6e7f7677-62a4-46e1-9c02-89a68ea7749d,2018-05-08T11:28:37Z,2018-06-01T02:05:16Z,,
Uludağ – Bursa,,29.2213623,40.0717018,,,,,Turkey,Asia,,2b5d24c6-b0ec-41c8-afdd-614e20d1338e,2018-05-08T11:28:37Z,2018-06-01T02:05:16Z,,
Unterberg – Pernitz,,15.9551428,47.8975563,,,,,Austria,Europe,EU,dd703d2b-da13-43cb-8263-82d3f4d6cc68,2018-05-08T11:28:37Z,2018-06-01T02:05:16Z,,
Unterbäch – Brandalp,,7.7975627,46.2747711,,,,,Switzerland,Europe,,f544a73e-7378-420b-9315-9b533dd0c4d4,2018-05-08T11:28:37Z,2018-06-01T02:05:16Z,,
Unterhütte – Waldmünchen,,12.7619914,49.3485581,,,,,Germany,Europe,EU,b63fe31f-392c-481d-9c36-423d966f40f0,2018-05-08T11:28:37Z,2018-06-01T02:05:17Z,,
Unternberg (Ruhpolding),,12.643056,47.730556,,,,,Germany,Europe,EU,d04e1139-3b96-4c34-894d-d830cc19ac18,2018-05-08T11:28:37Z,2018-06-01T02:05:17Z,,
Untersberg – Grödig,,13.0475481,47.7432841,,,,,Austria,Europe,EU,48de8c73-fa73-468c-aba9-9d50db4456ee,2018-05-08T11:28:37Z,2018-06-01T02:05:17Z,,
Unterstmatt,,8.20178,48.627211,,,,,Germany,Europe,EU,f0d670f7-c59e-4cd7-bd06-05203d2f44b1,2018-05-08T11:28:37Z,2018-06-01T02:05:17Z,,
Unterwasser,,9.3086091,47.1971653,,,,,Switzerland,Europe,,7fca09db-774c-46c7-8c82-63a7a5a4df49,2018-05-08T11:28:37Z,2018-06-01T02:05:17Z,,
Uplands Ski Centre,,-79.4388184,43.8247508,,,,,Canada,North America,,a261d157-431a-4752-90d7-a1fb1b3abd0d,2018-05-08T11:28:37Z,2018-06-01T02:05:17Z,,
Urmein (Heinzenberg),,9.4311407,46.7041496,,,,,Switzerland,Europe,,05edf2b1-7e85-4086-8b59-6e1de410f64a,2018-05-08T11:28:37Z,2018-06-01T02:05:17Z,,
Urnerboden,,8.90094,46.88993,,,,,Switzerland,Europe,,4839405a-bd75-4078-a3a2-8381d78360c8,2018-05-08T11:28:37Z,2018-06-01T02:05:17Z,,
Urspring (Lonsee),,9.89085,48.55033,,,,,Germany,Europe,EU,1321cfc6-2129-499a-a1f2-a7fde92a5a33,2018-05-08T11:28:37Z,2018-06-01T02:05:17Z,,
Usseln,,8.6627314,51.2826995,,,,,Germany,Europe,EU,74c686e4-76b1-4464-86a1-b8e2dad8eb4d,2018-05-08T11:28:37Z,2018-06-01T02:05:17Z,,
Ussita,,13.1382181,42.9433048,,,,,Italy,Europe,EU,e87a2e3f-1537-4235-a362-8afc0aeefd69,2018-05-08T11:28:37Z,2018-06-01T02:05:17Z,,
Uuperin rinteet,,27.0635962,60.6277183,,,,,Finland,Europe,EU,eff57751-4a27-4f13-80fe-bf268e6474fe,2018-05-08T11:28:37Z,2018-06-01T02:05:17Z,,
Vail,,-106.3741955,39.6402638,,,,,USA,,,04a85b8d-d9f9-4b9f-90e7-14287054a030,2018-05-08T11:28:37Z,2018-06-01T02:05:17Z,,
Val Bialas Ski Center – Utica,,-75.2504362,43.084454,,,,,USA,,,61f5544b-9229-4cb8-a553-3520fac9ee43,2018-05-08T11:28:37Z,2018-06-01T02:05:17Z,,
Val Cenis – Lanslevillard,,6.8830311,45.284625,,,,,France,Europe,EU,08849bd7-2dce-4f74-924c-93bc50134873,2018-05-08T11:28:37Z,2018-06-01T02:05:17Z,,
Val Gardena (Gröden),,11.7839583,46.5565395,,,,,Italy,Europe,EU,8b974d69-4a91-41ab-b636-eeaa9d9cc35d,2018-05-08T11:28:37Z,2018-06-01T02:05:17Z,,
Val Louron,,0.3893675,42.79097,,,,,France,Europe,EU,cb88037a-12df-4112-b29a-fec425d8c208,2018-05-08T11:28:37Z,2018-06-01T02:05:17Z,,
Val Lumnezia,,9.17366,46.71766,,,,,Switzerland,Europe,,850f20ca-8849-4580-8e1d-8c2de48c6ecb,2018-05-08T11:28:37Z,2018-06-01T02:05:17Z,,
Val Pelens,,6.730909,44.15425,,,,,France,Europe,EU,3fab24d6-23e5-41dd-8b97-4052feaba902,2018-05-08T11:28:37Z,2018-06-01T02:05:17Z,,
Val Saint-Côme,,-73.8658998,46.272243,,,,,Canada,North America,,65db4d73-5f92-44e2-83b0-bdbd4e843ce9,2018-05-08T11:28:37Z,2018-06-01T02:05:17Z,,
Val Senales Glacier (Schnalstaler Gletscher),,10.782539,46.7573105,,,,,Italy,Europe,EU,cff28946-f3d6-4a29-ae01-43cfb4c2bdea,2018-05-08T11:28:37Z,2018-06-01T02:05:17Z,,
Val Veny,,6.9150485,45.7944759,,,,,Italy,Europe,EU,04b8b51f-a570-4e59-9e81-79afbdb14135,2018-05-08T11:28:37Z,2018-06-01T02:05:17Z,,
Val d'Arc – Bessans,,6.991744,45.321823,,,,,France,Europe,EU,d27413cb-e475-4263-8021-2ffc72d16b07,2018-05-08T11:28:37Z,2018-06-01T02:05:17Z,,
Val d'Ese,,2.1581351,49.0615901,,,,,France,Europe,EU,f4b9da4c-9498-46eb-a150-b42c94a7ddfa,2018-05-08T11:28:37Z,2018-06-01T02:05:17Z,,
Val d'Irène,,-67.5753489,48.465849,,,,,Canada,North America,,0ece4234-b183-4d9b-92d8-92355ae09ecb,2018-05-08T11:28:37Z,2018-06-01T02:05:17Z,,
Val d'Isère,,6.980226,45.448034,,,,,France,Europe,EU,982d1de4-9275-4e27-b022-dcf521241349,2018-05-08T11:28:37Z,2018-06-01T02:05:17Z,,
Val de Wanne,,5.9092866,50.3600879,,,,,Belgium,Europe,EU,2869ab69-5288-4b82-8f55-8645d1f419fe,2018-05-08T11:28:37Z,2018-06-01T02:05:17Z,,
Val di Luce,,10.6320062,44.1375245,,,,,Italy,Europe,EU,d35f3d93-9bdc-4dfc-b2c2-920bc23bd4ad,2018-05-08T11:28:37Z,2018-06-01T02:05:17Z,,
Val d’Allos,,6.5578893,44.2852768,,,,,France,Europe,EU,b32a0535-e1ed-4943-93e9-7a03b12500fd,2018-05-08T11:28:37Z,2018-06-01T02:05:17Z,,
Val-d'Or,,-77.7967676,48.0987106,,,,,Canada,North America,,fabacdee-03aa-4709-9926-5a1d3da0041e,2018-05-08T11:28:37Z,2018-06-01T02:05:17Z,,
Valberg,,6.928991,44.096049,,,,,France,Europe,EU,7896b845-ed5e-4d36-abd2-ab4ed11b0e51,2018-05-08T11:28:37Z,2018-06-01T02:05:17Z,,
Valbergsbacken – Torsby,,12.991825,60.1422106,,,,,Sweden,Europe,EU,b8ef42b6-238e-4b72-9b12-64ce89961f5e,2018-05-08T11:28:37Z,2018-06-01T02:05:17Z,,
Valchiavenna – Madesimo,,9.3580308,46.4366898,,,,,Italy,Europe,EU,dfae1811-865c-4605-a19f-ad7198d3fdba,2018-05-08T11:28:37Z,2018-06-01T02:05:17Z,,
Valcianska Dolina – Valča (Snowland),,18.808958,49.014947,,,,,Slovakia,Europe,EU,b0e6066d-8346-41ad-909d-c847902a4341,2018-05-08T11:28:37Z,2018-06-01T02:05:17Z,,
Valdelinares (Sierra de Gúdar),,-0.632222,40.373611,,,,,Spain,Europe,EU,8f76fb09-88e3-433c-8233-eda001b66502,2018-05-08T11:28:37Z,2018-06-01T02:05:17Z,,
Valdesqui,,-3.970615,40.805066,,,,,Spain,Europe,EU,4e2c7da6-759a-440a-aba9-8662c97b3143,2018-05-08T11:28:37Z,2018-06-01T02:05:17Z,,
Valdezcaray,,-2.9708253,42.257343,,,,,Spain,Europe,EU,189daffc-5afd-4fe2-bd54-05b8b9466df6,2018-05-08T11:28:37Z,2018-06-01T02:05:17Z,,
Valdres Alpinsenter,,9.4200539,60.9356133,,,,,Norway,Europe,,4667bc78-0b9c-4356-b51e-61251edafa61,2018-05-08T11:28:37Z,2018-06-01T02:05:17Z,,
Valdrôme,,5.571565,44.504108,,,,,France,Europe,EU,fb8ba47e-0926-4933-8e9f-5868ed9e55e0,2018-05-08T11:28:37Z,2018-06-01T02:05:17Z,,
Todtnauberg,,7.9405851,47.8517078,,,,,Germany,Europe,EU,88a59002-b718-49e8-9599-84e95664a057,2018-05-08T11:28:36Z,2018-06-01T02:05:17Z,,
Toggenburg – Wildhaus,,9.350492,47.2033339,,,,,Switzerland,Europe,,550fb833-a793-4f62-a075-1e1f0be61ef7,2018-05-08T11:28:36Z,2018-06-01T02:05:17Z,,
Toguz-Bulak,,69.7569891,39.8659606,,,,,Kyrgyzstan,,,f78d1a3d-2bd7-4fd2-98fd-f5a8e5ed887f,2018-05-08T11:28:36Z,2018-06-01T02:05:17Z,,
Tonale,,10.5808235,46.2564381,,,,,Italy,Europe,EU,50c21165-4015-4622-a774-0a07579d736f,2018-05-08T11:28:36Z,2018-06-01T02:05:17Z,,
Tonnerhütte – Mühlen,,14.5306287,47.0519596,,,,,Austria,Europe,EU,49809c48-54ff-4f33-bb41-ed108b33b61e,2018-05-08T11:28:36Z,2018-06-01T02:05:17Z,,
Torfhauslifte – Altenau,,10.5377163,51.8023514,,,,,Germany,Europe,EU,138d4262-5f1a-433c-8c0b-d60cc104206e,2018-05-08T11:28:36Z,2018-06-01T02:05:17Z,,
Torgnon,,7.5761914,45.8339003,,,,,Italy,Europe,EU,271e009a-d83b-4671-a7b3-c82783c0732b,2018-05-08T11:28:36Z,2018-06-01T02:05:17Z,,
Tornik – Zlatibor,,19.6396923,43.6540869,,,,,Serbia,Europe,,46e6abaf-092b-4eb0-8d61-6c0a937e6b6a,2018-05-08T11:28:36Z,2018-06-01T02:05:17Z,,
Torrent – Leukerbad,,7.6290866,46.3738345,,,,,Switzerland,Europe,,5dcef81f-0f65-46a9-b870-a550632cfc49,2018-05-08T11:28:36Z,2018-06-01T02:05:17Z,,
Towadako Onsen,,140.8772428,40.464869,,,,,Japan,Asia,,df16caab-1c7f-4aef-81fe-a3720ea6e87a,2018-05-08T11:28:36Z,2018-06-01T02:05:17Z,,
Trachselwald,,7.7992867,47.0464759,,,,,Switzerland,Europe,,f23bc7a2-6edd-4b85-a0b3-7c9da001a891,2018-05-08T11:28:36Z,2018-06-01T02:05:17Z,,
Traifelberg – Honau (Lichtenstein),,9.2731115,48.4043888,,,,,Germany,Europe,EU,bb5c59e2-630b-4986-b0a9-0ee96f7ce2fe,2018-05-08T11:28:36Z,2018-06-01T02:05:18Z,,
Tramelan,,7.102975,47.2235029,,,,,Switzerland,Europe,,f7477059-0d5d-47da-a683-07f15f58635e,2018-05-08T11:28:36Z,2018-06-01T02:05:18Z,,
Transalpina – Vidra,,23.7056637,45.416181,,,,,Romania,Europe,EU,c6e9f41a-1780-4e5e-ad27-3cbb5efdf19a,2018-05-08T11:28:36Z,2018-06-01T02:05:18Z,,
Treble Cone,,168.8960917,-44.6333027,,,,,New Zealand,Oceania,,a1a2e88a-bd75-4fe3-b10a-2a11f2c30030,2018-05-08T11:28:36Z,2018-06-01T02:05:18Z,,
Treffelhausen – Böhmenkirch,,9.8913778,48.6914719,,,,,Germany,Europe,EU,dc918548-7688-4c78-9b9c-47b4380eb59f,2018-05-08T11:28:36Z,2018-06-01T02:05:18Z,,
Treisberg (Schmitten),,8.4367182,50.2961632,,,,,Germany,Europe,EU,0a840786-8511-4167-8b36-351205c2641f,2018-05-08T11:28:36Z,2018-06-01T02:05:18Z,,
Trestle Ridge – Terrace Bay,,-87.1099526,48.7864429,,,,,Canada,North America,,b7ffa702-0ab6-4be7-a40a-fe106ea6af9b,2018-05-08T11:28:36Z,2018-06-01T02:05:18Z,,
Triangle Sports Area – Green Bay,,-87.95075,44.510113,,,,,USA,,,d3128c8b-c90c-4059-bad4-696b247c2711,2018-05-08T11:28:36Z,2018-06-01T02:05:18Z,,
Trije Kralji,,15.1920136,46.6354978,,,,,Slovenia,Europe,EU,5ca90c0f-4c3d-4571-b723-69cdbbf94f47,2018-05-08T11:28:36Z,2018-06-01T02:05:18Z,,
Trins,,11.4209635,47.0840436,,,,,Austria,Europe,EU,7575214d-d2e3-40db-bbef-aee87197ecbb,2018-05-08T11:28:36Z,2018-06-01T02:05:18Z,,
Tristeli – St. Margrethenberg,,9.5052297,46.9818586,,,,,Switzerland,Europe,,ebb4bf58-3f66-408b-a1a4-622fa0e19700,2018-05-08T11:28:36Z,2018-06-01T02:05:18Z,,
Troják,,17.815215,49.354797,,,,,Czech Republic,Europe,EU,3755cbf4-2353-4a83-86e6-2bc4de30ea19,2018-05-08T11:28:36Z,2018-06-01T02:05:18Z,,
Trollhaugen,,-92.6180935,45.3513159,,,,,USA,,,aafc8fd9-d527-49d5-b5c1-ecc8de94680a,2018-05-08T11:28:36Z,2018-06-01T02:05:18Z,,
Tromsø,,18.9553239,69.6492047,,,,,Norway,Europe,,19ad9ffa-dd0b-41ac-aec5-eb01a031345c,2018-05-08T11:28:36Z,2018-06-01T02:05:18Z,,
Trondheim,,10.3950528,63.4305149,,,,,Norway,Europe,,d9e3cd1c-8da8-4334-b8d4-42d934b31a66,2018-05-08T11:28:36Z,2018-06-01T02:05:18Z,,
Troodos – Mount Olympos,,32.8639595,34.9363752,,,,,Cyprus,,,d234a7ad-294a-4e3e-bc5d-a15f5aa4c673,2018-05-08T11:28:36Z,2018-06-01T02:05:18Z,,
Trostyan Mountain,,23.3896462,48.856696,,,,,Ukraine,Europe,,314140cc-8ff9-419c-ac95-683d8fc5db29,2018-05-08T11:28:36Z,2018-06-01T02:05:18Z,,
Truchtelfingen (Albstadt),,9.0278504,48.2392827,,,,,Germany,Europe,EU,f6150a19-6cd3-46eb-8dd1-b9a1a1b6f61f,2018-05-08T11:28:36Z,2018-06-01T02:05:18Z,,
Trusetal,,10.4022724,50.7828353,,,,,Germany,Europe,EU,c2d88df8-e6bd-4c8b-b6fc-222181f750f8,2018-05-08T11:28:36Z,2018-06-01T02:05:18Z,,
Trysil,,12.2598392,61.3169004,,,,,Norway,Europe,,49d1636a-883e-4c12-9c9f-c822b0199066,2018-05-08T11:28:36Z,2018-06-01T02:05:18Z,,
Tsakhkadzor,,44.7159759,40.5317434,,,,,Armenia,Europe,,ec13a5dd-0dbb-423f-9c48-ba2472ceb47a,2018-05-08T11:28:36Z,2018-06-01T02:05:18Z,,
Tschappina,,9.383685,46.6862386,,,,,Switzerland,Europe,,89441716-5392-4455-ba2c-c32b7655a7f4,2018-05-08T11:28:36Z,2018-06-01T02:05:18Z,,
TschentenAlp – Adelboden,,7.5456258,46.4986708,,,,,Switzerland,Europe,,6e9561de-e3b9-44cb-b157-f7b90f2108ad,2018-05-08T11:28:36Z,2018-06-01T02:05:18Z,,
Tschiertschen,,9.60671,46.81777,,,,,Switzerland,Europe,,5c324b69-4dd1-46be-b23d-9e937792e466,2018-05-08T11:28:36Z,2018-06-01T02:05:18Z,,
Tsey,,77.0368471,28.4173882,,,,,North Caucasus,,,0e0405f8-470f-4b2c-80ae-83bb4ca55943,2018-05-08T11:28:36Z,2018-06-01T02:05:18Z,,
Tsuchitaru,,138.847752,36.9087564,,,,,Japan,Asia,,2b399f1a-aba9-41d0-b388-1c79e4808938,2018-05-08T11:28:36Z,2018-06-01T02:05:18Z,,
Tufandağ,,47.9917133,41.1617832,,,,,Azerbaijan,Europe,,f76840d2-0907-434f-9deb-d7dc27e311bd,2018-05-08T11:28:36Z,2018-06-01T02:05:18Z,,
Turmkogel – Puchenstuben,,15.2854085,47.9095897,,,,,Austria,Europe,EU,03f70e45-09da-4580-901c-ccbef13011f5,2018-05-08T11:28:36Z,2018-06-01T02:05:18Z,,
Turoa,,175.5269275,-39.3043775,,,,,New Zealand,Oceania,,a30ddc46-680c-40df-a2d9-1d963bc94fbd,2018-05-08T11:28:36Z,2018-06-01T02:05:18Z,,
Turracher Höhe,,13.875,46.914444,,,,,Austria,Europe,EU,ceb64a92-8b43-4f7e-b04f-7864a6f43457,2018-05-08T11:28:36Z,2018-06-01T02:05:18Z,,
Turystyczna,,15.5200599,50.8212279,,,,,Poland,Europe,EU,d9ec6154-ec5d-4c97-a6d2-79fe840bf18d,2018-05-08T11:28:36Z,2018-06-01T02:05:18Z,,
Tylicz,,21.0254722,49.3956034,,,,,Poland,Europe,EU,b755f5f8-cdd8-4882-a7bc-705d44f0e4de,2018-05-08T11:28:36Z,2018-06-01T02:05:18Z,,
Tymfristos – Velouchi,,21.915917,38.9096419,,,,,Greece,Europe,EU,9c86e636-d25e-4bfe-a893-a590da1f0a5e,2018-05-08T11:28:36Z,2018-06-01T02:05:18Z,,
Tále,,19.6001014,48.8740184,,,,,Slovakia,Europe,EU,1f9c2566-f5b0-4549-a2ce-9d5eb32a9b01,2018-05-08T11:28:36Z,2018-06-01T02:05:18Z,,
Tänndalen,,12.3325326,62.5436384,,,,,Sweden,Europe,EU,1763c338-a780-422b-8c6f-a04514a16e81,2018-05-08T11:28:36Z,2018-06-01T02:05:18Z,,
Tänndalsvallen,,12.3038205,62.5399588,,,,,Sweden,Europe,EU,8561aa26-ca13-402a-b52d-458280623e99,2018-05-08T11:28:36Z,2018-06-01T02:05:18Z,,
Tännicht (Sohland an der Spree),,14.3995896,51.0450214,,,,,Germany,Europe,EU,4258c773-e914-42d1-8a67-1b53dcca23b2,2018-05-08T11:28:36Z,2018-06-01T02:05:18Z,,
Tärnaby,,15.2679922,65.7099739,,,,,Sweden,Europe,EU,b674415b-cb5c-482d-8429-0d60ccc86347,2018-05-08T11:28:36Z,2018-06-01T02:05:18Z,,
Täsch,,7.7759045,46.0679692,,,,,Switzerland,Europe,,b3c59091-397a-4132-bdb7-a89bd2092e41,2018-05-08T11:28:36Z,2018-06-01T02:05:18Z,,
Tarvisio – Monte Lussari,,13.5236583,46.4798015,,,,,Italy,Europe,EU,dd1c879c-9628-4c44-a4f5-e70e6506a4ef,2018-05-08T11:28:35Z,2018-06-01T02:05:18Z,,
Tashiro (Mt. Naeba),,138.6904931,36.8457325,,,,,Japan,Asia,,8db6ac44-ba44-4b33-8bb2-38c5a0860773,2018-05-08T11:28:35Z,2018-06-01T02:05:18Z,,
Tateshina Tokyu,,138.2515062,36.0680752,,,,,Japan,Asia,,d8360bd0-84d8-4a3e-abd6-40b3b565f345,2018-05-08T11:28:35Z,2018-06-01T02:05:18Z,,
Tatranská Lomnica,,20.2822798,49.1644992,,,,,Slovakia,Europe,EU,1b5987c5-5da2-4ffb-a37d-91533275a2da,2018-05-08T11:28:35Z,2018-06-01T02:05:18Z,,
Tauplitz – Bad Mitterndorf,,14.0118664,47.5611157,,,,,Austria,Europe,EU,f13caf9e-2683-46c9-a0d2-e9abb991e9c0,2018-05-08T11:28:35Z,2018-06-01T02:05:18Z,,
Tawatinaw Valley (Pine Valley Resort),,-113.4780121,54.2971876,,,,,Canada,North America,,3bf6a941-9dcd-437d-9903-05e4789c2840,2018-05-08T11:28:35Z,2018-06-01T02:05:18Z,,
Tegefjäll,,12.9764597,63.4008281,,,,,Sweden,Europe,EU,71712561-bf0f-47a6-a0de-a8ddadf90c87,2018-05-08T11:28:35Z,2018-06-01T02:05:18Z,,
Tegelberg – Schwangau,,10.7727778,47.5538889,,,,,Germany,Europe,EU,d596aefe-12bd-4cf7-bca2-036b65a46238,2018-05-08T11:28:35Z,2018-06-01T02:05:18Z,,
Teichalm – Fladnitz,,15.4779639,47.2852184,,,,,Austria,Europe,EU,93e07657-7cd4-4f9f-84cd-cf224f08093c,2018-05-08T11:28:35Z,2018-06-01T02:05:18Z,,
Telegraf – Kielce,,20.6416666,50.8388888,,,,,Poland,Europe,EU,e497871b-c932-4a05-a8d7-442ab886d318,2018-05-08T11:28:35Z,2018-06-01T02:05:18Z,,
Telford Ski Centre (dry slopes),,-2.4502302,52.6406579,,,,,United Kingdom,Europe,EU,5871058b-65a3-47c4-893e-6c6529f7cfef,2018-05-08T11:28:35Z,2018-06-01T02:05:18Z,,
Telgárt,,20.1859398,48.8515807,,,,,Slovakia,Europe,EU,704070e6-9270-4b46-8f1c-02c15166b349,2018-05-08T11:28:35Z,2018-06-01T02:05:20Z,,
Telluride,,-107.8122852,37.9374939,image://v1/25b4a3_4718c55bd8d24ab5974f34dd05c4f054~mv2.jpg/960_637/telluride%20(1).jpg,Telluride is the county seat and most populous town of San Miguel County in the southwestern portion of the U.S. state of Colorado.,TRUE,image://v1/25b4a3_d49d1d047b3444d78e5845ec62bc09da~mv2.png/1417_422/TSR_bold.png,USA,,,71daf172-fb27-4709-a9e1-1e3be8e47169,2018-05-08T11:28:35Z,2018-06-15T02:10:43Z,,
Telnice,,13.9577909,50.7329635,,,,,Czech Republic,Europe,EU,eae07ab6-dd5f-4bae-b6ac-a6af2e12b386,2018-05-08T11:28:35Z,2018-06-01T02:05:20Z,,
Temple Basin,,171.5766066,-42.9084609,,,,,New Zealand,Oceania,,f348f6f0-de2b-46f6-9594-5e6c3fddb75a,2018-05-08T11:28:35Z,2018-06-01T02:05:20Z,,
Temù (Pontedilegno-Tonale),,10.5070389,46.2571421,,,,,Italy,Europe,EU,261bbbff-805f-49fb-9b3f-648db3311622,2018-05-08T11:28:35Z,2018-06-01T02:05:20Z,,
Tengamori,,140.5836107,39.261605,,,,,Japan,Asia,,43670533-ba0d-43a5-b695-1752d9e9182c,2018-05-08T11:28:35Z,2018-06-01T02:05:20Z,,
Tenna,,9.3386146,46.7465998,,,,,Switzerland,Europe,,9bdfc9a0-b58d-4756-a527-cefbb3127a59,2018-05-08T11:28:35Z,2018-06-01T02:05:20Z,,
Teplica – Brezovica,,19.6670727,49.3288562,,,,,Slovakia,Europe,EU,3d4ce01b-1e2b-46fb-8207-105fcb774ae5,2018-05-08T11:28:35Z,2018-06-01T02:05:20Z,,
Terenten (Terento),,11.7784058,46.8299024,,,,,Italy,Europe,EU,206af16d-535e-4d62-845d-5d9b58f43a16,2018-05-08T11:28:35Z,2018-06-01T02:05:20Z,,
Termignon,,6.817117,45.276599,,,,,France,Europe,EU,e3b94f1e-9964-420e-a578-4576b4f12a74,2018-05-08T11:28:35Z,2018-06-01T02:05:20Z,,
Terneuzen Skidome (indoor ski area),,3.850083,51.297125,,,,,Netherlands,Europe,EU,cd5d737e-9d6c-451f-8049-5e84a1e054e1,2018-05-08T11:28:35Z,2018-06-01T02:05:20Z,,
Terrebonne,,-73.6331102,45.6929818,,,,,Canada,North America,,a67040f3-6372-42df-a8a6-ffdbd294752d,2018-05-08T11:28:35Z,2018-06-01T02:05:20Z,,
Terry Peak,,-103.8352015,44.3274841,,,,,USA,,,f64a8a10-3ead-4dda-acce-fd12ccac45b9,2018-05-08T11:28:35Z,2018-06-01T02:05:20Z,,
Tesák,,17.7893636,49.3727458,,,,,Czech Republic,Europe,EU,8f1b87ac-3481-4c6d-b9fb-adf57ecb16cb,2018-05-08T11:28:35Z,2018-06-01T02:05:20Z,,
Tetnuldi – Mestia,,42.730878,43.0423708,,,,,Georgia,Europe,,9cbffc2f-e3e0-479e-847d-f59edd67b706,2018-05-08T11:28:35Z,2018-06-01T02:05:20Z,,
Teton Pass,,-110.9552144,43.4974247,,,,,USA,,,2a3cb113-8d03-4b73-95d4-b6aa24081c68,2018-05-08T11:28:35Z,2018-06-01T02:05:20Z,,
Tettau – Wildberg,,11.25352,50.46135,,,,,Germany,Europe,EU,05788f92-9350-4d16-adcb-044a41754f9c,2018-05-08T11:28:35Z,2018-06-01T02:05:20Z,,
Thalerhöhe – Wiederhofen (Missen-Wilhams),,10.1011465,47.5938401,,,,,Germany,Europe,EU,38d7a6bb-311e-4195-884c-f1bd3208e622,2018-05-08T11:28:35Z,2018-06-01T02:05:20Z,,
Thalkirchdorf (Oberstaufen),,10.0884993,47.5526967,,,,,Germany,Europe,EU,01b8cdb4-0d7a-4029-8216-158d552ed58f,2018-05-08T11:28:35Z,2018-06-01T02:05:20Z,,
Thanner Hubel,,7.025599,47.8244649,,,,,France,Europe,EU,ceded804-c2f2-4ecf-9bd6-85378e971513,2018-05-08T11:28:35Z,2018-06-01T02:05:20Z,,
The Lecht,,-3.2504076,57.2034006,,,,,United Kingdom,Europe,EU,1dd18ab6-34fe-40d8-96f6-8f5bcc0d0c71,2018-05-08T11:28:35Z,2018-06-01T02:05:20Z,,
The Remarkables,,168.8143041,-45.0540695,,,,,New Zealand,Oceania,,0c798f5f-1dd1-4720-8c98-4327672f7ca2,2018-05-08T11:28:35Z,2018-06-01T02:05:20Z,,
The Ridge – Le Roy,,-77.954426,43.0208267,,,,,USA,,,a7f47704-212b-4635-b83b-12e717ea94e8,2018-05-08T11:28:35Z,2018-06-01T02:05:20Z,,
The Snow Centre – Hemel Hempstead (indoor ski area),,-0.4589256,51.7457241,,,,,United Kingdom,Europe,EU,4e3d4ff7-148c-406e-b4e6-5a3595ddc26a,2018-05-08T11:28:35Z,2018-06-01T02:05:20Z,,
The Summit at Snoqualmie,,-121.4211049,47.42044,,,,,USA,,,1475d493-ce17-46fd-b3dd-182bf8de31db,2018-05-08T11:28:35Z,2018-06-01T02:05:20Z,,
Thier des Rexhons – Spa,,5.8690141,50.4601515,,,,,Belgium,Europe,EU,7f635297-12cf-44d5-867f-79653b06c6e8,2018-05-08T11:28:35Z,2018-06-01T02:05:20Z,,
Thollon les Mémises,,6.696968,46.390727,,,,,France,Europe,EU,56cfd589-8e1c-43cd-9d82-7d465be97779,2018-05-08T11:28:35Z,2018-06-01T02:05:20Z,,
Thoma – Hinterzarten,,8.0767531,47.9086182,,,,,Germany,Europe,EU,78b52ede-069e-41df-adf6-64c7fe364c97,2018-05-08T11:28:35Z,2018-06-01T02:05:20Z,,
Thredbo,,148.310377,-36.5012959,image://v1/25b4a3_12262db407d3462fb2febe16847c72de~mv2.jpg/620_349/thredbo.jpg,"Thredbo, located within the Kosciuszko National Park, boasts some of Australia’s highest mountains between 1365 to 1930 metres above sea level. ",TRUE,,Australia,Oceania,,6e682eb8-162f-4280-962e-c9d440874824,2018-05-08T11:28:35Z,2018-06-20T05:09:19Z,,
Thunderhill – Benito,,-101.6079568,52.0171927,,,,,Canada,North America,,8885ae8a-f3bd-4324-9c6b-bb6ee58d55cb,2018-05-08T11:28:35Z,2018-06-01T02:05:20Z,,
Thyon,,7.3846039,46.1809819,,,,,Switzerland,Europe,,702aad1e-a8a1-481d-874a-9f1be2efc414,2018-05-08T11:28:35Z,2018-06-01T02:05:20Z,,
Tiffindell,,27.9260199,-30.6537982,,,,,South Africa,Africa,,8408cb9f-f910-4bb6-a045-42d1106f3cde,2018-05-08T11:28:35Z,2018-06-01T02:05:20Z,,
Tignes,,6.9055785,45.4683226,,,,,France,Europe,EU,cfa58171-dfee-416c-820c-338979a347b5,2018-05-08T11:28:35Z,2018-06-01T02:05:20Z,,
Timberline,,-121.7110071,45.3311307,,,,,USA,,,db2008dc-ab51-4f60-af2c-561ecb0b788b,2018-05-08T11:28:35Z,2018-06-01T02:05:20Z,,
Timberline Four Seasons,,-79.39903,39.042453,,,,,USA,,,803c7a3b-b35b-4add-9d57-87f6551dc1f4,2018-05-08T11:28:35Z,2018-06-01T02:05:20Z,,
Tindastóll – Sauðárkrókur,,-19.6521699,65.7517939,,,,,Iceland,Europe,,13cd8fab-1af7-42a1-a97c-c326dcce5f83,2018-05-08T11:28:35Z,2018-06-01T02:05:20Z,,
Tindaöxl – Ólafsfjörður,,-18.6255556,66.0694444,,,,,Iceland,Europe,,99320cb7-5ea3-4b10-a4d7-e226f273dcc8,2018-05-08T11:28:35Z,2018-06-01T02:05:20Z,,
Titlis – Engelberg,,8.4377704,46.772048,,,,,Switzerland,Europe,,3fc70336-44e5-458f-bf93-2cfb0833bc81,2018-05-08T11:28:35Z,2018-06-01T02:05:20Z,,
Titus Mountain,,-74.2329229,44.766619,,,,,USA,,,7607c0fb-2a5e-4666-8640-120cfb3cd94a,2018-05-08T11:28:35Z,2018-06-01T02:05:20Z,,
Sunnbüel – Kandersteg,,7.656527,46.466773,,,,,Switzerland,Europe,,18063ebb-2b63-4780-a3dc-e248a9eb6d4f,2018-05-08T11:28:34Z,2018-06-01T02:05:20Z,,
Sunridge,,-113.9933928,51.0732391,,,,,Canada,North America,,fdd62ed6-9074-4c8d-8482-5341b64d4e27,2018-05-08T11:28:34Z,2018-06-01T02:05:20Z,,
Sunshine Village,,-115.7632758,51.1151858,,,,,Canada,North America,,c6a4359b-aa93-45f8-836c-5dfb31ecf368,2018-05-08T11:28:34Z,2018-06-01T02:05:20Z,,
Suomu,,28.0166667,66.55,,,,,Finland,Europe,EU,075c9cae-dfd3-4e9c-b0ee-0cf88e349e36,2018-05-08T11:28:34Z,2018-06-01T02:05:20Z,,
Super Sauze,,6.6855324,44.3585856,,,,,France,Europe,EU,5f333a8d-d179-4143-a7fc-4863fd1fab60,2018-05-08T11:28:34Z,2018-06-01T02:05:20Z,,
SuperBesse – Puy de Sancy,,2.81393,45.528387,,,,,France,Europe,EU,76887380-21d9-4f8a-ab79-d648c35307ce,2018-05-08T11:28:34Z,2018-06-01T02:05:20Z,,
Sutrio,,12.9898096,46.5117717,,,,,Italy,Europe,EU,c6fd0d6d-9b06-4b8f-b744-29597f162a50,2018-05-08T11:28:34Z,2018-06-01T02:05:20Z,,
Suusamir (Too Ashu Pass),,73.8069444,42.3452778,,,,,Kyrgyzstan,,,68074f4b-7c43-41d8-b9cc-aeb25f4afdb2,2018-05-08T11:28:34Z,2018-06-01T02:05:20Z,,
Sveitsin Hiihtokeskus – Hyvinkää,,24.8185462,60.6503142,,,,,Finland,Europe,EU,5bc452ab-bb8c-4af7-88b5-d010e7ec38f4,2018-05-08T11:28:34Z,2018-06-01T02:05:20Z,,
Sviščaki,,14.4032376,45.572755,,,,,Slovenia,Europe,EU,d69dfc7e-6687-40c7-944c-f2504e2314a6,2018-05-08T11:28:34Z,2018-06-01T02:05:20Z,,
Svoboda nad Úpou,,15.8164883,50.625961,,,,,Czech Republic,Europe,EU,86cdfafd-7380-45b3-ba72-bad90c5e5deb,2018-05-08T11:28:34Z,2018-06-01T02:05:20Z,,
Swadlincote Ski & Snowboard Centre (dry slopes),,-1.5509161,52.7700523,,,,,United Kingdom,Europe,EU,80c98803-f328-4dfa-a1bf-92d2c0f6858b,2018-05-08T11:28:34Z,2018-06-01T02:05:21Z,,
Swain,,-77.8533322,42.4778443,,,,,USA,,,5f516327-409e-4e57-8d31-c55b4df6ef42,2018-05-08T11:28:34Z,2018-06-01T02:05:21Z,,
Sysendalen – Eidfjord,,7.3370305,60.4129223,,,,,Norway,Europe,,3411657d-6f37-48e5-8f52-fd89462cc4e7,2018-05-08T11:28:34Z,2018-06-01T02:05:21Z,,
Szczawnik (Piwniczna-Zdrój,,20.8672514,49.380528,,,,,Poland,Europe,EU,64c0411f-845f-4bfd-a861-16d5af6c9750,2018-05-08T11:28:34Z,2018-06-01T02:05:21Z,,
Szczyrk Mountain Resort,,18.9960781,49.6948743,,,,,Poland,Europe,EU,119e3e0d-ff6c-4111-a8b8-34249f8b8425,2018-05-08T11:28:34Z,2018-06-01T02:05:21Z,,
Szilvásvárad,,20.3881651,48.1050501,,,,,Hungary,Europe,EU,efd36226-7d35-464b-a2ae-c7361f732bb0,2018-05-08T11:28:34Z,2018-06-01T02:05:21Z,,
Szklana Góra – Harbutowice,,19.785344,49.812624,,,,,Poland,Europe,EU,d08f0f1a-1870-4a0c-999b-a7e625bfa291,2018-05-08T11:28:34Z,2018-06-01T02:05:21Z,,
Szklarska Poręba – Szrenica,,15.5131977,50.7919726,,,,,Poland,Europe,EU,3f16901c-92b3-4add-ac4d-87bcd21431fd,2018-05-08T11:28:34Z,2018-06-01T02:05:21Z,,
Szus – Koniaków,,18.9271259,49.5498135,,,,,Poland,Europe,EU,6c85df70-db2d-4bed-bcc8-1463010f5bb0,2018-05-08T11:28:34Z,2018-06-01T02:05:21Z,,
Szwajcaria Bałtowska,,21.5497409,51.014689,,,,,Poland,Europe,EU,84c73557-8753-42b1-882d-b3d840ff9471,2018-05-08T11:28:34Z,2018-06-01T02:05:21Z,,
Szymkówka,,20.1046023,49.3178974,,,,,Poland,Europe,EU,bdce3c11-fb0f-4886-a8a5-1074a9ba7e83,2018-05-08T11:28:34Z,2018-06-01T02:05:21Z,,
Szymoszkowa,,19.9285524,49.2950262,,,,,Poland,Europe,EU,afd39d65-aa2c-434d-b0ca-70161edd3f41,2018-05-08T11:28:34Z,2018-06-01T02:05:21Z,,
Szyndzielnia – Bielsko-Biała,,19.0001357,49.7531988,,,,,Poland,Europe,EU,469a867f-b03a-49c3-a7bc-be5c1450c7a2,2018-05-08T11:28:34Z,2018-06-01T02:05:21Z,,
Sádek – Klenci pod Cerchovem,,12.7819105,49.429287,,,,,Czech Republic,Europe,EU,73d8e109-aa49-45f9-8a10-b2728d660e2a,2018-05-08T11:28:34Z,2018-06-01T02:05:21Z,,
Säfsen,,14.4196952,60.140749,,,,,Sweden,Europe,EU,1f2fc18a-7161-41bb-8aea-011a69d3cd1a,2018-05-08T11:28:34Z,2018-06-01T02:05:21Z,,
Sägenhof – Urach,,8.2152394,48.0018481,,,,,Germany,Europe,EU,aa27c4e9-6080-4b2c-8726-aa540b820642,2018-05-08T11:28:34Z,2018-06-01T02:05:21Z,,
Síaréna Eplény,,17.9294515,47.2139714,,,,,Hungary,Europe,EU,0c9379c0-4284-467d-b53c-6bf5d4307792,2018-05-08T11:28:34Z,2018-06-01T02:05:21Z,,
Sölden,,11.0076232,46.9654937,,,,,Austria,Europe,EU,0ecb379f-42bc-4cde-9906-4f0705f02036,2018-05-08T11:28:34Z,2018-06-01T02:05:21Z,,
Söllereck – Oberstdorf,,10.2333333,47.3666667,,,,,Germany,Europe,EU,01efd456-fcb1-4951-a75a-0ceadba5d2f0,2018-05-08T11:28:34Z,2018-06-01T02:05:21Z,,
Sörenberg – Rothorn,,8.04701,46.7871,,,,,Switzerland,Europe,,0b1715f8-9040-455e-a238-63b37db79973,2018-05-08T11:28:34Z,2018-06-01T02:05:21Z,,
Słotwiny,,20.935624,49.439081,,,,,Poland,Europe,EU,8521dbbb-b17c-4710-aeea-f4cd1c3caeb4,2018-05-08T11:28:34Z,2018-06-01T02:05:21Z,,
Słotwiny Arena,,20.935134,49.432927,,,,,Poland,Europe,EU,7b097cdc-82a5-481f-bba6-974efc3187ef,2018-05-08T11:28:34Z,2018-06-01T02:05:21Z,,
Taisten (Tesido),,12.1067087,46.7547568,,,,,Italy,Europe,EU,5583cb7d-f300-4d5d-acad-7b7662a0d0b8,2018-05-08T11:28:34Z,2018-06-01T02:05:21Z,,
Taiziling,,106.819257,33.593789,,,,,China,Asia,,e9209b58-f9bd-4080-bbc7-f601b6739a53,2018-05-08T11:28:34Z,2018-06-01T02:05:21Z,,
Tajov,,19.0700401,48.7462249,,,,,Slovakia,Europe,EU,755ed25b-f31f-45a7-a038-84d293fa379f,2018-05-08T11:28:34Z,2018-06-01T02:05:21Z,,
Takanbo,,131.0671205,32.9967665,,,,,Japan,Asia,,0c356e3a-f0b3-4fc2-921a-3807129c4dbc,2018-05-08T11:28:34Z,2018-06-01T02:05:21Z,,
Takasu Snow Park,,136.8772186,35.9979666,,,,,Japan,Asia,,83b9e488-f10b-40da-8242-c46832c77f92,2018-05-08T11:28:34Z,2018-06-01T02:05:21Z,,
Talblick – Mitteltal (Baiersbronn),,8.3191504,48.5175393,,,,,Germany,Europe,EU,35916393-0b35-4673-8c01-cb5f713f260d,2018-05-08T11:28:34Z,2018-06-01T02:05:21Z,,
Talwiese – Bad Herrenalb,,8.4407359,48.769993,,,,,Germany,Europe,EU,4066d38f-0f70-4856-8ee2-ff66fa0fb28a,2018-05-08T11:28:34Z,2018-06-01T02:05:21Z,,
Tamarack Resort,,-85.534876,44.7465419,,,,,USA,,,772ea96d-ecde-4c5e-800f-9e42fd240faf,2018-05-08T11:28:34Z,2018-06-01T02:05:21Z,,
Tandådalen,,12.9988794,61.1753345,,,,,Sweden,Europe,EU,ff96f5fc-ec85-4924-897a-d312e7073932,2018-05-08T11:28:34Z,2018-06-01T02:05:21Z,,
Tannenberglift – Immenreuth,,11.8607407,49.9297884,,,,,Germany,Europe,EU,a6002290-7a20-4b66-b1cc-2c7a245e6b08,2018-05-08T11:28:34Z,2018-06-01T02:05:21Z,,
Tannerberg,,9.8606489,47.4487529,,,,,Austria,Europe,EU,a2f974a9-adea-4050-a372-7bdba856bc5a,2018-05-08T11:28:34Z,2018-06-01T02:05:21Z,,
Tannerfeld – Bayrischzell,,12.0140808,47.6732016,,,,,Germany,Europe,EU,ff7db0db-02c7-4ef2-ad0b-e7530859180e,2018-05-08T11:28:34Z,2018-06-01T02:05:21Z,,
Tanvaldský Špičák,,15.2825,50.751111,,,,,Czech Republic,Europe,EU,0d773001-2215-43d6-8dbd-d02b46edec5c,2018-05-08T11:28:34Z,2018-06-01T02:05:21Z,,
Tanzboden – Ebnat-Kappel,,9.1104601,47.2511453,,,,,Switzerland,Europe,,78fa2fa6-a463-4f4c-a5e3-e7086eefbf24,2018-05-08T11:28:34Z,2018-06-01T02:05:21Z,,
Taos,,-105.5730665,36.4072485,,,,,USA,,,7f2389fc-214c-4bbd-b2c5-64447f0b5fff,2018-05-08T11:28:34Z,2018-06-01T02:05:21Z,,
Tarasp,,10.2584949,46.7758856,,,,,Switzerland,Europe,,f4ae389f-b8a6-4a80-803a-f7a6a239cf91,2018-05-08T11:28:34Z,2018-06-01T02:05:21Z,,
Tarscher Alm (Malga di Tarres) – Latsch (Laces),,10.888125,46.581172,,,,,Italy,Europe,EU,21c5191f-1a9f-4bb9-9aff-0080bb0c571a,2018-05-08T11:28:34Z,2018-06-01T02:05:21Z,,
Stok Relaks,,23.1897889,53.1435192,,,,,Poland,Europe,EU,db25a653-721c-4cfa-9138-4003933470d4,2018-05-08T11:28:33Z,2018-06-01T02:05:21Z,,
Stok – Wisła,,18.8264668,49.6582698,,,,,Poland,Europe,EU,4d164df4-390e-41b0-8e62-237c7f68eac2,2018-05-08T11:28:33Z,2018-06-01T02:05:21Z,,
Stoke Ski Centre (dry slopes),,-2.19746,53.028905,,,,,United Kingdom,Europe,EU,5bb00ad6-dd43-4ed3-a77d-a8d1b0c8c48a,2018-05-08T11:28:33Z,2018-06-01T02:05:21Z,,
Stokinger – Freudenstadt-Lauterbad,,8.4328861,48.4466662,,,,,Germany,Europe,EU,958f2567-6b34-4bec-b303-9fa578e0dead,2018-05-08T11:28:33Z,2018-06-01T02:05:21Z,,
Stollenbach bei Oberried,,7.980556,47.903056,,,,,Germany,Europe,EU,2e60ead2-dabc-4879-bda9-5b7a9b060f5a,2018-05-08T11:28:33Z,2018-06-01T02:05:21Z,,
Stoneham Mountain Resort,,-71.3930229,47.0303739,,,,,Canada,North America,,31fb296d-9e32-4ff1-a35e-fc97c144f133,2018-05-08T11:28:33Z,2018-06-01T02:05:21Z,,
Stoos – Fronalpstock,,8.6372684,46.9682209,,,,,Switzerland,Europe,,7e045241-e70e-4204-84aa-b1155724bd8b,2018-05-08T11:28:33Z,2018-06-01T02:05:21Z,,
Storhogna,,14.0983552,62.5047418,,,,,Sweden,Europe,EU,b324b0ca-6b75-4931-9138-6d3a7ea227f5,2018-05-08T11:28:33Z,2018-06-01T02:05:21Z,,
Storrs Hill – Lebanon,,-72.2515459,43.6209465,,,,,USA,,,80c299b6-c58b-44c3-b57d-b58a8624362d,2018-05-08T11:28:33Z,2018-06-01T02:05:21Z,,
Stowe,,-72.6874023,44.4654332,,,,,USA,,,9369c3d5-258b-47fe-acf4-b3d961775035,2018-05-08T11:28:33Z,2018-06-01T02:05:21Z,,
Stożek – Wisła,,18.8340533,49.6037088,,,,,Poland,Europe,EU,8d915929-e7c1-46b9-b4f6-deb2b2bfdfef,2018-05-08T11:28:33Z,2018-06-01T02:05:21Z,,
Strandafjellet,,6.8405131,62.290985,,,,,Norway,Europe,,1a6144ab-f737-466a-8768-c954017ecb22,2018-05-08T11:28:33Z,2018-06-01T02:05:22Z,,
Stratton,,-72.9109334,43.0428562,,,,,USA,,,88fe9dfd-8ce7-47e1-a355-0e80a1bdf597,2018-05-08T11:28:33Z,2018-06-01T02:05:22Z,,
Straža – Bled,,14.1036111,46.3597222,,,,,Slovenia,Europe,EU,baffc27f-4d00-43cf-8e9d-36c03d3e0d77,2018-05-08T11:28:33Z,2018-06-01T02:05:22Z,,
Strednica – Ždiar,,20.228594,49.273366,,,,,Slovakia,Europe,EU,0200307f-e479-4be9-af54-ecf65c4852b6,2018-05-08T11:28:33Z,2018-06-01T02:05:22Z,,
Strużnica,,15.8875896,50.8377252,,,,,Poland,Europe,EU,7526f5b6-c4b5-4cc2-a33f-2036efeefa94,2018-05-08T11:28:33Z,2018-06-01T02:05:22Z,,
Stryn Sommerski – Tystigbreen,,7.3618607,61.9560731,,,,,Norway,Europe,,9eb87bd7-5664-43af-a5aa-f639e30ac077,2018-05-08T11:28:33Z,2018-06-01T02:05:22Z,,
Strážné,,15.6150831,50.6635814,,,,,Czech Republic,Europe,EU,b50c563f-25f0-4bf6-9036-fcc677064de2,2018-05-08T11:28:33Z,2018-06-01T02:05:22Z,,
Strážný,,13.7203763,48.9083116,,,,,Czech Republic,Europe,EU,283ba866-1512-4624-85a4-24bde044d9f8,2018-05-08T11:28:33Z,2018-06-01T02:05:22Z,,
Stubai Glacier (Stubaier Gletscher),,11.1550482,47.0106291,,,,,Austria,Europe,EU,fdd3a1c7-06a3-41d3-adb5-044e3ace33b1,2018-05-08T11:28:33Z,2018-06-01T02:05:22Z,,
Stuben,,10.15805,47.13963,,,,,Austria,Europe,EU,b3e8d9f7-7e5a-4443-89af-19e0f37c877b,2018-05-08T11:28:33Z,2018-06-01T02:05:22Z,,
Stubnerkogel,,13.1063486,47.1184886,,,,,Austria,Europe,EU,7f58e9f6-80b0-4f1a-93ba-ba82fd255a00,2018-05-08T11:28:33Z,2018-06-01T02:05:22Z,,
Studenov,,15.4472611,50.7449558,,,,,Czech Republic,Europe,EU,a8fd38f1-e45d-454c-b662-7a1707376814,2018-05-08T11:28:33Z,2018-06-01T02:05:22Z,,
Stuhleck – Spital am Semmering,,15.7833333,47.5666667,,,,,Austria,Europe,EU,01016c7d-6003-41d3-9134-8a0393273b58,2018-05-08T11:28:33Z,2018-06-01T02:05:22Z,,
Stöckerkopf (Baiersbronn),,8.36873,48.494341,,,,,Germany,Europe,EU,512696f8-99af-4fcb-8770-ef7d00865330,2018-05-08T11:28:33Z,2018-06-01T02:05:22Z,,
Stöten,,12.898881,61.274001,,,,,Sweden,Europe,EU,8626bf6a-f9a4-404f-953f-08c3951f1ece,2018-05-08T11:28:33Z,2018-06-01T02:05:22Z,,
Stříbrnice,,17.2460699,49.3284532,,,,,Czech Republic,Europe,EU,a471a778-0b0f-4eb9-b816-3f7b7dc17690,2018-05-08T11:28:33Z,2018-06-01T02:05:22Z,,
Suche,,19.977628,49.3364379,,,,,Poland,Europe,EU,77c0e01a-9fcb-4782-87a9-24f05a2e25ba,2018-05-08T11:28:33Z,2018-06-01T02:05:22Z,,
Sudelfeld – Bayrischzell,,12.0140808,47.6732016,,,,,Germany,Europe,EU,2d4bc9f0-bfba-4a07-bb80-5db426a374a2,2018-05-08T11:28:33Z,2018-06-01T02:05:22Z,,
Suffolk Ski Centre (dry slopes),,1.145181,52.028229,,,,,United Kingdom,Europe,EU,5c87f5e4-ce05-43de-9d87-43baa3ea365f,2018-05-08T11:28:33Z,2018-06-01T02:05:22Z,,
Sugar Bowl,,-120.3334022,39.3004435,,,,,USA,,,e8bbc3f7-a4d8-44ac-832d-28150f7ff099,2018-05-08T11:28:33Z,2018-06-01T02:05:22Z,,
Sugar Mountain,,-81.8601122,36.127349,,,,,USA,,,abac4fee-7ebd-4e82-afde-9dec11848473,2018-05-08T11:28:33Z,2018-06-01T02:05:22Z,,
Sugarbush,,-72.8944,44.13607,,,,,USA,,,7738ed81-b23a-4cf3-808b-cb490d66d083,2018-05-08T11:28:33Z,2018-06-01T02:05:22Z,,
Sugarloaf,,-70.3085062,45.0541812,,,,,USA,,,d69dafa7-b85c-4f04-b823-5b16aafeb5e3,2018-05-08T11:28:33Z,2018-06-01T02:05:22Z,,
Suhara Ski Resort,,139.016183,37.322691,,,,,Japan,Asia,,fbc6815a-9170-4cb6-8725-ae358e019bf0,2018-05-08T11:28:33Z,2018-06-01T02:05:22Z,,
Suicide Six,,-72.5432659,43.6650614,,,,,USA,,,e563f6c8-61cd-4484-88a3-fa5bc702abbb,2018-05-08T11:28:33Z,2018-06-01T02:05:22Z,,
Suior,,23.8274791,47.6551477,,,,,Romania,Europe,EU,50f23a2e-9bf1-4e97-b901-3713eb149ab7,2018-05-08T11:28:33Z,2018-06-01T02:05:22Z,,
Suishozan – Kazuno,,140.7530105,40.1683879,,,,,Japan,Asia,,2867f2a2-2eb7-440e-b234-452320dbedaf,2018-05-08T11:28:33Z,2018-06-01T02:05:22Z,,
Sulden am Ortler (Solda all'Ortles),,10.596046,46.5180911,,,,,Italy,Europe,EU,59282f4c-e9de-4d5a-a03b-81ac8fb9f744,2018-05-08T11:28:33Z,2018-06-01T02:05:22Z,,
Summit Ski Area at Mt. Hood,,-121.7458283,45.3029059,,,,,USA,,,4aff1b37-418d-4b1b-b2b0-43f600253ec1,2018-05-08T11:28:33Z,2018-06-01T02:05:22Z,,
Sun Alpina Kashimayari,,137.8254561,36.5969431,,,,,Japan,Asia,,e6182772-9fc6-48ee-9c42-38c03f96fc7f,2018-05-08T11:28:33Z,2018-06-01T02:05:22Z,,
Sun Mountain – Yabuli,,128.447649,44.780865,,,,,China,Asia,,cd284827-6fe7-42f2-8218-f629ddfca78f,2018-05-08T11:28:33Z,2018-06-01T02:05:22Z,,
Sun Peaks,,-119.8859113,50.8844485,,,,,Canada,North America,,578f7849-5798-4e20-8700-724fb28ffd8a,2018-05-08T11:28:33Z,2018-06-01T02:05:22Z,,
Sun Valley Resort,,-114.3542433,43.6941651,,,,,Japan,Asia,,4f4e1b0f-8e05-4c3a-bc4b-34f0ff1f2dd5,2018-05-08T11:28:33Z,2018-06-01T02:05:22Z,,
Sunburst,,-111.910518,48.8832031,,,,,USA,,,b0de813e-d03f-4ede-9434-3944e59541c1,2018-05-08T11:28:33Z,2018-06-01T02:05:22Z,,
Sundance,,-81.4107084,28.4283263,,,,,USA,,,0029c1d4-48d8-4afa-a65f-198c94155855,2018-05-08T11:28:33Z,2018-06-01T02:05:22Z,,
Sunday River,,-70.856951,44.473609,,,,,USA,,,a708ce5a-98a4-4d0d-b3a8-897cbf85c823,2018-05-08T11:28:33Z,2018-06-01T02:05:22Z,,
Sundsvall – Sidsjöbacken,,17.2759192,62.3682747,,,,,Sweden,Europe,EU,2be9d419-df67-4dcd-bdeb-cbf50c10d431,2018-05-08T11:28:33Z,2018-06-01T02:05:22Z,,
Sundsvall – Södra Berget,,17.3205555,62.3688889,,,,,Sweden,Europe,EU,fe78fb61-a45f-4f47-934a-b3a3f3ab5ba9,2018-05-08T11:28:33Z,2018-06-01T02:05:22Z,,
Sunlight Mountain,,-107.3387647,39.3997821,,,,,USA,,,e5d07b22-b633-47a6-924b-1150e0141f63,2018-05-08T11:28:33Z,2018-06-01T02:05:22Z,,
St. Cergue,,6.1581382,46.4460412,,,,,Switzerland,Europe,,90fb3bd4-1624-40df-aa7a-3c63d1f7e53d,2018-05-08T11:28:32Z,2018-06-01T02:05:22Z,,
St. Christoph,,10.2117,47.12869,,,,,Austria,Europe,EU,b925d3c7-f4c0-4451-9060-52a187ed81fb,2018-05-08T11:28:32Z,2018-06-01T02:05:22Z,,
St. Corona,,16.009009,47.5862806,,,,,Austria,Europe,EU,ccc92c54-181f-4011-a46c-45b0c72142a5,2018-05-08T11:28:32Z,2018-06-01T02:05:22Z,,
St. Corona am Wechsel,,16.009009,47.5862806,,,,,Austria,Europe,EU,5b91f256-350c-4b7b-a4dd-d0111d72acd7,2018-05-08T11:28:32Z,2018-06-01T02:05:22Z,,
St. Gréé di Viola,,7.9572431,44.2772033,,,,,Italy,Europe,EU,6c94f8b2-87bf-48b5-a0d2-61f07eaa1c4f,2018-05-08T11:28:32Z,2018-06-01T02:05:22Z,,
St. Hemma – Edelschrott,,14.986897,47.024153,,,,,Austria,Europe,EU,45fcdaa2-1b6b-4cc7-9625-dda64b5c21f5,2018-05-08T11:28:32Z,2018-06-01T02:05:22Z,,
St. Jakob im Defereggental – Brunnalm,,12.3278347,46.9160069,,,,,Austria,Europe,EU,da0031e1-c97a-4ae3-b27f-ec0229359019,2018-05-08T11:28:32Z,2018-06-01T02:05:22Z,,
St. Jakob im Walde,,15.788746,47.4663258,,,,,Austria,Europe,EU,a1ad49b4-64da-4004-9c55-3f4a8dd355c6,2018-05-08T11:28:32Z,2018-06-01T02:05:22Z,,
St. Jakob in Haus,,12.5581616,47.5007291,,,,,Austria,Europe,EU,1ea09acf-22ab-4a1a-a00a-178da810caef,2018-05-08T11:28:32Z,2018-06-01T02:05:22Z,,
St. Jean Montclar,,6.351128,44.410069,,,,,France,Europe,EU,2decd2a8-291c-439a-a12d-f3c9532712f6,2018-05-08T11:28:32Z,2018-06-01T02:05:22Z,,
St. Johann in Tirol,,12.4308125,47.5221901,,,,,Austria,Europe,EU,1d4406fe-3562-4803-8142-b2f0cf6f43b6,2018-05-08T11:28:32Z,2018-06-01T02:05:22Z,,
St. Magdalena (Gsies,,12.2371287,46.8319267,,,,,Italy,Europe,EU,e69cb5be-9de6-4dd6-a239-6d6de9ebe688,2018-05-08T11:28:32Z,2018-06-01T02:05:23Z,,
St. Martin im Tennengebirge,,13.38102,47.46413,,,,,Austria,Europe,EU,036340d8-ba2e-4256-b033-faa867013425,2018-05-08T11:28:32Z,2018-06-01T02:05:23Z,,
St. Mary,,139.632709,35.6145794,,,,,Japan,Asia,,e5307be6-9b88-470a-8642-c6d3dc8ce84a,2018-05-08T11:28:32Z,2018-06-01T02:05:23Z,,
St. Michael,,13.6369194,47.0960691,,,,,Austria,Europe,EU,aa43aff1-ef5a-42ce-9939-f25fb0d482c7,2018-05-08T11:28:32Z,2018-06-01T02:05:23Z,,
St. Moritz – Corviglia,,9.819,46.507556,,,,,Switzerland,Europe,,a85d1351-3d68-4005-a4a1-fbc00cb23e27,2018-05-08T11:28:32Z,2018-06-01T02:05:23Z,,
St. Oswald,,15.0352186,48.2654137,,,,,Austria,Europe,EU,d03574f1-6cd7-4118-b0aa-95da36eb9013,2018-05-08T11:28:32Z,2018-06-01T02:05:23Z,,
St. Oswald (Kartitsch),,12.48,46.7369,,,,,Austria,Europe,EU,828cd873-3aa5-48d4-a528-1deb4e89e557,2018-05-08T11:28:32Z,2018-06-01T02:05:23Z,,
St. Pierre de Chartreuse – Le Planolet,,5.835805,45.3630489,,,,,France,Europe,EU,166b85f2-887f-4b35-b646-6ec28e0099d1,2018-05-08T11:28:32Z,2018-06-01T02:05:23Z,,
St. Stephan,,7.40205,46.50595,,,,,Switzerland,Europe,,a80ad3aa-1650-4b58-8a37-0c586a9febbb,2018-05-08T11:28:32Z,2018-06-01T02:05:23Z,,
Staatsberg – Furtwangen,,8.1843746,48.0444152,,,,,Germany,Europe,EU,d7ee32c3-3600-488d-9f07-9d2e59c771ab,2018-05-08T11:28:32Z,2018-06-01T02:05:23Z,,
Stadtpark – Thum,,12.9533805,50.6671655,,,,,Germany,Europe,EU,9765d378-1d96-413b-816c-c4cac872bc2a,2018-05-08T11:28:32Z,2018-06-01T02:05:23Z,,
Staffelalp – Zeglingen,,7.9149755,47.4047454,,,,,Switzerland,Europe,,eb5a3d94-6121-4997-a55b-6b49404da433,2018-05-08T11:28:32Z,2018-06-01T02:05:23Z,,
Stanzach,,10.5610272,47.3830235,,,,,Austria,Europe,EU,96ecda5b-aedc-4ebc-ac29-645626b16b33,2018-05-08T11:28:32Z,2018-06-01T02:05:23Z,,
Star Hill Resort – Cheonmasan,,127.2691605,37.6628383,,,,,South Korea,,,cf3871fe-fd39-4355-983c-9978bbe26691,2018-05-08T11:28:32Z,2018-06-01T02:05:23Z,,
Stara Planina – Babin Zub,,22.6119444,43.3705556,,,,,Serbia,Europe,,133efeeb-8b69-4947-8208-c01050cdd707,2018-05-08T11:28:32Z,2018-06-01T02:05:23Z,,
Stari Vrh,,14.1915393,46.1831049,,,,,Slovenia,Europe,EU,2bd2885d-40d1-4bf4-814b-4ade80f9f1b5,2018-05-08T11:28:32Z,2018-06-01T02:05:23Z,,
Stary Groń – Brenna,,18.9174092,49.6820305,,,,,Poland,Europe,EU,fc1cdc4f-8fd1-44ed-9f70-24683dcc2980,2018-05-08T11:28:32Z,2018-06-01T02:05:23Z,,
Starý Smokovec – Hrebienok,,20.2249213,49.1585064,,,,,Slovakia,Europe,EU,15af6466-ffa1-4711-9853-8a86cc699744,2018-05-08T11:28:32Z,2018-06-01T02:05:23Z,,
Steamboat,,-106.8317158,40.4849769,,,,,USA,,,f8e16050-bdca-49e9-96b3-04f205e1827c,2018-05-08T11:28:32Z,2018-06-01T02:05:23Z,,
Steckenberg – Unterammergau,,11.02331,47.60986,,,,,Germany,Europe,EU,c37f0137-f894-44ae-a108-f4f99593f6bb,2018-05-08T11:28:32Z,2018-06-01T02:05:23Z,,
Steg,,7.748743,46.3151515,,,,,Switzerland,Europe,,4aa8f42e-3f01-40c8-9949-7e13dfb6750f,2018-05-08T11:28:32Z,2018-06-01T02:05:23Z,,
Steg im Tösstal,,8.93915,47.35039,,,,,Switzerland,Europe,,0049f717-640e-473d-ac17-a2bd912d8312,2018-05-08T11:28:32Z,2018-06-01T02:05:23Z,,
Steibis – Imberg (Oberstaufen),,10.022737,47.5207801,,,,,Germany,Europe,EU,b2d014a1-7a51-418a-9a81-b1440fe9da0c,2018-05-08T11:28:32Z,2018-06-01T02:05:23Z,,
Steinberg am Rofan,,11.7968321,47.5150961,,,,,Austria,Europe,EU,9dc91e80-ccc1-4224-93ea-5805d19c2fc9,2018-05-08T11:28:32Z,2018-06-01T02:05:23Z,,
Steinberglift – Langfurth (Schöfweg),,13.19205,48.82032,,,,,Germany,Europe,EU,f6ecb40d-738e-4f84-9777-14cebe0622d7,2018-05-08T11:28:32Z,2018-06-01T02:05:23Z,,
Steinplatte,,12.5833332,47.6,,,,,Austria,Europe,EU,924216fb-f713-41f3-a7a3-f56a4237f336,2018-05-08T11:28:32Z,2018-06-01T02:05:23Z,,
Sternberg – Linderhofe (Extertal),,9.0582286,52.0564678,,,,,Germany,Europe,EU,1039da12-cbcd-4ddc-98f1-f0196c2927f8,2018-05-08T11:28:32Z,2018-06-01T02:05:23Z,,
Sternenberg – Schatzböl,,8.9056191,47.3895953,,,,,Switzerland,Europe,,28cbaae3-5911-49b7-942a-3af4280096d6,2018-05-08T11:28:32Z,2018-06-01T02:05:23Z,,
Sternrodt – Bruchhausen,,8.5417023,51.2863214,,,,,Germany,Europe,EU,36688c33-9ada-47bb-9cdd-dda6ea97f4d2,2018-05-08T11:28:32Z,2018-06-01T02:05:23Z,,
Sternstein – Bad Leonfelden,,14.2666667,48.5666667,,,,,Austria,Europe,EU,a6713313-3fc7-4dfa-882b-b2d32751ae97,2018-05-08T11:28:32Z,2018-06-01T02:05:23Z,,
Stevens Pass,,-121.0890197,47.7448119,,,,,USA,,,521ae0db-c089-427f-9f19-3d2df3331056,2018-05-08T11:28:32Z,2018-06-01T02:05:23Z,,
Stiergarten,,12.3895126,46.6968898,,,,,Italy,Europe,EU,8f35f11a-c976-40a5-a174-a335e270ccfc,2018-05-08T11:28:32Z,2018-06-01T02:05:23Z,,
Stierhütte – Falkau,,8.1274226,47.8676202,,,,,Germany,Europe,EU,0662ce51-7076-4b34-8610-ccf4dea48d24,2018-05-08T11:28:32Z,2018-06-01T02:05:23Z,,
Stinesser Lifte – Fischen i. Allgäu,,10.2684346,47.456978,,,,,Germany,Europe,EU,8ceb7ec7-21ff-4cf3-abc8-e0bd5f29a259,2018-05-08T11:28:32Z,2018-06-01T02:05:23Z,,
Stixner Lift – Missen-Wilhams,,10.1525055,47.5885141,,,,,Germany,Europe,EU,8491a017-1acc-4798-a29f-925a133f1eb0,2018-05-08T11:28:32Z,2018-06-01T02:05:23Z,,
Stoaninger Alm – Schönau im Mühlkreis,,14.719775,48.401462,,,,,Austria,Europe,EU,c0b3e041-c5f9-43cf-a24c-5ba895cc5f98,2018-05-08T11:28:32Z,2018-06-01T02:05:23Z,,
Stockhütte – Beckenried,,8.4828623,46.9358132,,,,,Switzerland,Europe,,ffca7930-6600-43b7-8522-547809aef7a2,2018-05-08T11:28:32Z,2018-06-01T02:05:23Z,,
Stoderzinken – Gröbming,,13.8800918,47.4467877,,,,,Austria,Europe,EU,dad7dbd3-421c-4aba-9966-52cf8130a66c,2018-05-08T11:28:32Z,2018-06-01T02:05:23Z,,
Stok Karpatka,,15.7501415,50.7815247,,,,,Poland,Europe,EU,469e4549-7669-476f-83fa-aa6510ef3014,2018-05-08T11:28:32Z,2018-06-01T02:05:23Z,,
Solheisen Skisenter,,8.4406837,60.9216871,,,,,Norway,Europe,,809d9b5c-475f-4de6-974f-bb65b43e32b1,2018-05-08T11:28:31Z,2018-06-01T02:05:23Z,,
Solitude,,-111.5932552,40.6210616,,,,,USA,,,bfb19243-f933-4e85-9fdb-b040d7bc16d1,2018-05-08T11:28:31Z,2018-06-01T02:05:23Z,,
Sollegg – Appenzell,,9.4076858,47.3250874,,,,,Switzerland,Europe,,efee7080-3e61-4f3d-bf34-ad5bb7209656,2018-05-08T11:28:31Z,2018-06-01T02:05:23Z,,
Soláň – Vrchol,,18.2497629,49.3935464,,,,,Czech Republic,Europe,EU,067bba9b-adbc-4388-9950-6b1ca62d3fbd,2018-05-08T11:28:31Z,2018-06-01T02:05:23Z,,
Sommand (Taninges,,6.551199,46.160736,,,,,France,Europe,EU,49248a74-fda2-4ffc-8c9d-6a22038d4c07,2018-05-08T11:28:31Z,2018-06-01T02:05:23Z,,
Sommartel – Le Locle,,6.7585864,47.0273779,,,,,Switzerland,Europe,,a28515b9-7c22-4d17-beda-a8dd8332dcab,2018-05-08T11:28:31Z,2018-06-01T02:05:23Z,,
Song Mountain,,-76.158766,42.774219,,,,,USA,,,b8e1b5e8-eba2-4a72-8a6d-ff3fc7e71c80,2018-05-08T11:28:31Z,2018-06-01T02:05:23Z,,
Sonnberglifts – Wald am Schoberpass,,14.6728442,47.4519248,,,,,Austria,Europe,EU,30446a97-53ec-4cab-9545-c8f924159358,2018-05-08T11:28:31Z,2018-06-01T02:05:23Z,,
Sonnenberg – St. Andreasberg,,10.51306,51.75556,,,,,Germany,Europe,EU,76f90026-61c4-431d-a6b9-e21dca885373,2018-05-08T11:28:31Z,2018-06-01T02:05:23Z,,
Sonnenberglift – Gries im Sellrain,,11.1571958,47.1963978,,,,,Austria,Europe,EU,9878967a-aaac-4b9b-a649-40b75cca9068,2018-05-08T11:28:31Z,2018-06-01T02:05:23Z,,
Sonnenbichl – Bad Wiessee,,11.71488,47.70409,,,,,Germany,Europe,EU,0c315002-34c9-435b-ba9a-13dcc24a3484,2018-05-08T11:28:31Z,2018-06-01T02:05:23Z,,
Sonnenhanglifte – Unterjoch,,10.4312574,47.5378934,,,,,Germany,Europe,EU,015693df-c56c-4737-9ea3-2e47e3d4a360,2018-05-08T11:28:31Z,2018-06-01T02:05:25Z,,
Sonnenkopf – Klösterle,,10.0559643,47.1286493,,,,,Austria,Europe,EU,ac2f1617-3164-40b5-96d1-0431d747f0ab,2018-05-08T11:28:31Z,2018-06-01T02:05:25Z,,
Sonnenlift – Aigis (Missen-Wilhams),,10.0973705,47.6108908,,,,,Germany,Europe,EU,fedb0ec2-4c81-4aaf-b920-ba3e49359cc6,2018-05-08T11:28:31Z,2018-06-01T02:05:25Z,,
Sonnenlift – Praxmar,,11.1310693,47.1499453,,,,,Austria,Europe,EU,eb30ab23-4d8c-4430-86dc-8ad24ea6e53d,2018-05-08T11:28:31Z,2018-06-01T02:05:25Z,,
Sonnenlifts – Röfleuten (Pfronten),,10.53999,47.58501,,,,,Germany,Europe,EU,8e74be3d-12ec-4c98-9d2f-cd6470b75dd3,2018-05-08T11:28:31Z,2018-06-01T02:05:25Z,,
Sonntag-Stein,,9.91826,47.23235,,,,,Austria,Europe,EU,ea18e043-31ad-4ecb-bb54-b638ddc1d741,2018-05-08T11:28:31Z,2018-06-01T02:05:25Z,,
Soriška Planina,,14.0075999,46.2400654,,,,,Slovenia,Europe,EU,7e995110-de7e-4b2b-8c4f-6c380f2c1e6e,2018-05-08T11:28:31Z,2018-06-01T02:05:25Z,,
Sorochany – Kurovo,,37.563156,56.275696,,,,,Central Russia,,,b63f550e-8ecc-4876-a6ac-95d3058549e0,2018-05-08T11:28:31Z,2018-06-01T02:05:25Z,,
Sotkanrinteet,,22.2315861,62.4109474,,,,,Finland,Europe,EU,b4a9ece6-e440-401d-a26a-a7da2191a713,2018-05-08T11:28:31Z,2018-06-01T02:05:25Z,,
Sous-le-Mont – Tavannes,,7.213201,47.2155582,,,,,Switzerland,Europe,,2ac856fc-7cff-40c0-80a5-abfea6a94177,2018-05-08T11:28:31Z,2018-06-01T02:05:25Z,,
South Tweedsmuir Park,,-126.0711042,52.5954402,,,,,Canada,North America,,a45a15cc-cc9a-4f3d-8f61-b6d78c36740d,2018-05-08T11:28:31Z,2018-06-01T02:05:25Z,,
Southampton Snowsport Centre (dry slopes),,-1.4167032,50.9419243,,,,,United Kingdom,Europe,EU,a09f40fe-878d-4560-8cd5-6dbb063f8987,2018-05-08T11:28:31Z,2018-06-01T02:05:25Z,,
Spechtenseelift – Pürgg (Stainach-Pürgg),,14.0832371,47.561387,,,,,Austria,Europe,EU,31d16f31-db3b-4f71-a2c9-9bd2f2d72189,2018-05-08T11:28:31Z,2018-06-01T02:05:25Z,,
Speiereck – Mauterndorf,,13.6622247,47.1418734,,,,,Austria,Europe,EU,a3a4d9b2-11c0-4b09-a47e-47f905fac841,2018-05-08T11:28:31Z,2018-06-01T02:05:25Z,,
Speikboden – Sand in Taufers (Campo Tures),,11.886389,46.918889,,,,,Italy,Europe,EU,fe998edc-70f6-4c47-a8c5-ac992dce2b29,2018-05-08T11:28:31Z,2018-06-01T02:05:25Z,,
Spiazzi di Gromo,,9.9651414,45.971646,,,,,Italy,Europe,EU,eb62c65c-7f02-41f9-a893-f5fdcee4a686,2018-05-08T11:28:31Z,2018-06-01T02:05:25Z,,
Spiegelthalerstrasse – Clausthal-Zellerfeld,,10.3272758,51.820841,,,,,Germany,Europe,EU,11bc286a-a6a3-4cc1-a8d2-d973cd545da3,2018-05-08T11:28:31Z,2018-06-01T02:05:25Z,,
Spieljoch – Fügen,,11.8429565,47.3383662,,,,,Austria,Europe,EU,fbb781f8-002f-4c32-b6d1-77d13c387473,2018-05-08T11:28:31Z,2018-06-01T02:05:25Z,,
Spies – Betzenstein,,11.4009526,49.6368058,,,,,Germany,Europe,EU,9fd738a3-53a8-43b0-8363-71ca9a947407,2018-05-08T11:28:31Z,2018-06-01T02:05:25Z,,
Spieserlifte – Unterjoch,,10.42415,47.54451,,,,,Germany,Europe,EU,66e8f0dc-6f35-4bbd-be6d-b9c061bf4903,2018-05-08T11:28:31Z,2018-06-01T02:05:25Z,,
Spirit Mountain,,-92.2167365,46.7182684,,,,,USA,,,ff988c67-eea5-44bf-9781-a0dfadae1e1b,2018-05-08T11:28:31Z,2018-06-01T02:05:25Z,,
Spitzenberg,,9.938104,48.973489,,,,,Germany,Europe,EU,10bf4eb7-0df5-4cc1-8c00-e1c2138e671a,2018-05-08T11:28:31Z,2018-06-01T02:05:25Z,,
Spitzingsee-Tegernsee,,11.8851375,47.6635745,,,,,Germany,Europe,EU,8b2a3a4c-7cf4-4684-bf17-ab392ccd4ace,2018-05-08T11:28:31Z,2018-06-01T02:05:25Z,,
Splügen – Tambo,,9.320965,46.549143,,,,,Switzerland,Europe,,39617db5-6f12-4669-88d0-7667d628a16e,2018-05-08T11:28:31Z,2018-06-01T02:05:25Z,,
Sportgastein,,13.05954,47.06446,,,,,Austria,Europe,EU,305cd62e-8dfe-42f8-bbd9-722b1696287e,2018-05-08T11:28:31Z,2018-06-01T02:05:25Z,,
Spout Springs,,-79.06,35.26944,,,,,USA,,,c564951e-96af-44e6-bad3-2e0f275487af,2018-05-08T11:28:31Z,2018-06-01T02:05:25Z,,
Spring Lake Ski Hill,,-79.0630049,44.0278045,,,,,Canada,North America,,dfe8da87-e7fe-4a5e-92c0-1b238d3f5289,2018-05-08T11:28:31Z,2018-06-01T02:05:25Z,,
Spring Mountain,,-75.4565657,40.2756574,,,,,USA,,,4d29dc4b-4918-4eae-97f7-2ea32d2f2195,2018-05-08T11:28:31Z,2018-06-01T02:05:25Z,,
Springe,,9.5531458,52.2107905,,,,,Germany,Europe,EU,9905de10-826a-4304-843f-7b74154c5ac9,2018-05-08T11:28:31Z,2018-06-01T02:05:25Z,,
Springenboden,,7.5769005,46.6201738,,,,,Switzerland,Europe,,43331115-d91e-4ab2-a354-61ff779349ae,2018-05-08T11:28:31Z,2018-06-01T02:05:25Z,,
Spruce Mountain – Jay,,-70.2022707,44.4783257,,,,,USA,,,bcb9e843-e306-472f-9131-66ca6b96b126,2018-05-08T11:28:31Z,2018-06-01T02:05:25Z,,
Spåtind Skisenter,,9.878227,61.128877,,,,,Norway,Europe,,5c69c969-ee05-40c2-a26f-a7ac436eb84f,2018-05-08T11:28:31Z,2018-06-01T02:05:25Z,,
Squaw Valley,,-120.2357055,39.1969804,,,,,USA,,,eeff41e7-ab07-426c-be72-f66e605d0b30,2018-05-08T11:28:31Z,2018-06-01T02:05:25Z,,
St Colomban des Villards,,6.2345309,45.2964879,,,,,France,Europe,EU,d9d2ad74-b8da-4975-a8db-de077b81c1e0,2018-05-08T11:28:31Z,2018-06-01T02:05:25Z,,
St François Longchamp,,6.348243,45.409631,,,,,France,Europe,EU,fe0d3efa-f49b-4340-af68-f644b0ea32f1,2018-05-08T11:28:31Z,2018-06-01T02:05:25Z,,
St Jean d’Arves,,6.264322,45.206364,,,,,France,Europe,EU,52c8abe9-ffd9-48d2-b7b5-920a75177154,2018-05-08T11:28:31Z,2018-06-01T02:05:25Z,,
St Sorlin,,6.234955,45.221576,,,,,France,Europe,EU,f3a59c03-e032-46ef-a5b3-6f9ff914c439,2018-05-08T11:28:30Z,2018-06-01T02:05:25Z,,
St. Anton,,10.2681786,47.1296346,,,,,Austria,Europe,EU,6f5c444c-8e31-43b0-b4b5-8116882a48a0,2018-05-08T11:28:30Z,2018-06-01T02:05:25Z,,
St. Antönien,,9.8142825,46.9695874,,,,,Switzerland,Europe,,c03ef585-4caf-4916-b3e4-5d43db310070,2018-05-08T11:28:30Z,2018-06-01T02:05:25Z,,
Ski Sport Alm – Burladingen,,9.122106,48.2919238,,,,,Germany,Europe,EU,80865c20-269f-4b7e-8fc9-8593864db650,2018-05-08T11:28:29Z,2018-06-01T02:05:25Z,,
Ski TaJa – Tatranská Javorina,,20.1387725,49.2646617,,,,,Slovakia,Europe,EU,6c3ab2b2-8098-40ed-874b-e94abbcd8839,2018-05-08T11:28:29Z,2018-06-01T02:05:25Z,,
Ski-Ranch – Driedorf,,8.2246982,50.647882,,,,,Germany,Europe,EU,74f2035e-c3a1-4643-b31e-53c12345c310,2018-05-08T11:28:29Z,2018-06-01T02:05:25Z,,
SkiWelt Wilder Kaiser-Brixental,,12.1907127,47.5029803,,,,,Austria,Europe,EU,75842249-21c2-411e-86b0-88765569c7ab,2018-05-08T11:28:29Z,2018-06-01T02:05:25Z,,
Skiland – Mt. Aurora,,-147.4103557,65.0456703,,,,,USA,,,4af8ba36-79a7-4fcd-96b2-f692568d571b,2018-05-08T11:28:29Z,2018-06-01T02:05:25Z,,
Skillevollen – Mo i Rana,,14.102012,66.3376464,,,,,Norway,Europe,,49e3a514-15c2-4e21-bec7-95d0a1731832,2018-05-08T11:28:29Z,2018-06-01T02:05:25Z,,
Skipark Erika – Kojsovska Hola,,20.9719825,48.7808842,,,,,Slovakia,Europe,EU,0ea4bb3a-9ab3-4bb0-843d-58fd865b5d8b,2018-05-08T11:28:29Z,2018-06-01T02:05:25Z,,
Skipark Racibor – Oravský Podzámok,,19.3382051,49.2545797,,,,,Slovakia,Europe,EU,80fc6e84-89c2-407c-be67-84701df5994c,2018-05-08T11:28:29Z,2018-06-01T02:05:25Z,,
Skipot – Potůčky,,12.7320546,50.4189762,,,,,Czech Republic,Europe,EU,5ff1d60b-26f9-4a15-9a7c-1d56ad6b7a20,2018-05-08T11:28:29Z,2018-06-01T02:05:25Z,,
Skolnity – Wisła,,18.8497675,49.6455949,,,,,Poland,Europe,EU,5b3108b9-5d7b-44b1-b08d-e8a08c7239a1,2018-05-08T11:28:29Z,2018-06-01T02:05:25Z,,
Sky Resort – Ulaanbaatar,,107.0453712,47.8728225,,,,,Mongolia,Asia,,808e91bd-f3a3-4c92-966b-d1165956f234,2018-05-08T11:28:29Z,2018-06-01T02:05:25Z,,
Sky Shishiku,,136.6411469,36.4395187,,,,,Japan,Asia,,01b15e59-a8ea-48f2-94f6-84ed5cf06936,2018-05-08T11:28:29Z,2018-06-01T02:05:26Z,,
Skyline – Friendship,,-79.953485,36.0436,,,,,USA,,,565e91b0-aaa1-43d4-90cd-b1d2fffda11f,2018-05-08T11:28:29Z,2018-06-01T02:05:26Z,,
Skyloft,,-79.0760715,44.030133,,,,,Canada,North America,,4b7b756f-721c-4390-913f-6564d5aee789,2018-05-08T11:28:29Z,2018-06-01T02:05:26Z,,
Skálafell,,-21.4250398,64.2371131,,,,,Iceland,Europe,,f857f40d-be53-43b3-98b4-62d958628e64,2018-05-08T11:28:29Z,2018-06-01T02:05:26Z,,
Skönviksbacken,,17.3339967,62.4677536,,,,,Sweden,Europe,EU,2ecc172b-8202-4c1e-bd25-1a63737fd230,2018-05-08T11:28:29Z,2018-06-01T02:05:26Z,,
Sleeping Giant,,-99.778509,32.4095116,,,,,USA,,,b87cb970-710e-49c4-bb0d-d472942e24e0,2018-05-08T11:28:29Z,2018-06-01T02:05:26Z,,
Sleepy Hollow Sports Park – Des Moines,,-93.5334509,41.5892586,,,,,USA,,,1faebae8-96a6-4de6-9c7f-1c8ed70e0e58,2018-05-08T11:28:29Z,2018-06-01T02:05:26Z,,
Sljeme (Medvednica) – Zagreb,,15.9477552,45.8992885,,,,,Croatia,Europe,EU,eac6e425-886a-42ec-ab2b-5e5fff2b1f2a,2018-05-08T11:28:29Z,2018-06-01T02:05:26Z,,
Smugglers' Notch,,-72.7899606,44.588519,,,,,USA,,,64c8c327-5ffc-4e40-a2ad-c74b4debfdae,2018-05-08T11:28:29Z,2018-06-01T02:05:26Z,,
Snow Arena – Druskininkai (indoor ski area),,23.961659,54.032176,,,,,Lithuania,Europe,EU,1d1967ab-4b1e-4c09-b69f-51c1059ad5a7,2018-05-08T11:28:29Z,2018-06-01T02:05:26Z,,
Snow Creek,,-94.9707828,39.4673593,,,,,USA,,,7142a007-8e7e-4f55-a850-003a980320c5,2018-05-08T11:28:29Z,2018-06-01T02:05:26Z,,
Snow Dome Bispingen (indoor ski area),,9.9853099,53.1039707,,,,,Germany,Europe,EU,0f9b2f2c-1cb0-433f-af99-6d7928a11999,2018-05-08T11:28:29Z,2018-06-01T02:05:26Z,,
Snow Dome Snej (indoor ski area),,37.3633411,55.8156,,,,,Central Russia,,,63cd0939-5a76-4f6a-9830-e59bf19adc36,2018-05-08T11:28:29Z,2018-06-01T02:05:26Z,,
Snow Factor Braehead – Renfrew (indoor ski area),,-4.3707432,55.8785402,,,,,United Kingdom,Europe,EU,3a69cfc1-6c9f-4386-aa20-6e1a933fcc11,2018-05-08T11:28:29Z,2018-06-01T02:05:26Z,,
Snow King Mountain – Jackson,,-110.7589999,43.4737,,,,,USA,,,5866536a-1663-4228-910c-93262416480f,2018-05-08T11:28:29Z,2018-06-01T02:05:26Z,,
Snow Planet – Silverdale (indoor ski area),,174.6639795,-36.6344812,,,,,New Zealand,Oceania,,306369dd-e39a-437d-bd17-d52da0a8740b,2018-05-08T11:28:29Z,2018-06-01T02:05:26Z,,
Snow Snake,,-84.7809281,43.959106,,,,,USA,,,2b73753b-1cf3-481c-bca6-a9b935d97fe9,2018-05-08T11:28:29Z,2018-06-01T02:05:26Z,,
Big Bear,,-116.8890035,34.236346,,,,,USA,,,b73f13d3-afc0-4fc7-8a63-3a2f04da8294,2018-05-08T11:28:29Z,2018-06-01T02:05:26Z,,
Snow Trails,,-82.5006952,40.6727869,,,,,USA,,,fb224513-7541-4a47-8480-117f679c3629,2018-05-08T11:28:29Z,2018-06-01T02:05:26Z,,
Snow Valley,,-117.036177,34.2248821,,,,,USA,,,9f9c5046-1d01-4148-95a3-73d915d3a42b,2018-05-08T11:28:29Z,2018-06-01T02:05:26Z,,
Snow Valley – Edmonton,,-113.5565128,53.4836592,,,,,Canada,North America,,77e06704-03ca-4512-9a20-3770a21a1d67,2018-05-08T11:28:29Z,2018-06-01T02:05:26Z,,
Snow Valley – Peer (indoor ski area),,5.4705818,51.1228862,,,,,Belgium,Europe,EU,068dbe30-ad5a-4c8f-9c7f-222b6b737a41,2018-05-08T11:28:29Z,2018-06-01T02:05:26Z,,
SnowTropolis – Senftenberg (indoor ski area),,13.9714987,51.5209086,,,,,Germany,Europe,EU,39ae12a7-5a44-4810-ae61-55f4f4be755c,2018-05-08T11:28:29Z,2018-06-01T02:05:26Z,,
SnowWorld Landgraaf (indoor ski area),,6.0222201,50.8750928,,,,,Netherlands,Europe,EU,b34149c6-4c28-4f96-a666-9fefeec83bf0,2018-05-08T11:28:29Z,2018-06-01T02:05:26Z,,
SnowWorld Zoetermeer (indoor ski area),,4.4578477,52.0706388,,,,,Netherlands,Europe,EU,2593932e-9e4b-4952-951a-de93c3ff47ee,2018-05-08T11:28:29Z,2018-06-01T02:05:26Z,,
Snowbasin,,-111.856897,41.216045,,,,,USA,,,f775cb3c-05cc-4243-a57a-ede9a76d81e1,2018-05-08T11:28:29Z,2018-06-01T02:05:26Z,,
Snowbird,,-111.6552024,40.5818948,,,,,USA,,,7ed66f70-02f7-4ae9-80a1-62456e688116,2018-05-08T11:28:29Z,2018-06-01T02:05:26Z,,
Snowplanet (indoor ski area),,4.6794083,52.4488963,,,,,Netherlands,Europe,EU,a5f8a951-60b9-473e-91af-6ebf17b46d3c,2018-05-08T11:28:29Z,2018-06-01T02:05:26Z,,
Snowshoe Mountain,,-79.9936029,38.4107965,,,,,USA,,,f3ffc79c-4f9a-4a62-9657-974955dc637e,2018-05-08T11:28:29Z,2018-06-01T02:05:26Z,,
Snowstar,,-90.746175,41.425203,,,,,USA,,,25df6268-14a2-43c9-abb9-bfb8dffb5421,2018-05-08T11:28:29Z,2018-06-01T02:05:26Z,,
Snowtrax Alpine Activity Centre – Christchurch (dry slopes),,-1.819192,50.794286,,,,,United Kingdom,Europe,EU,284fd013-6827-4816-bb34-9e13852e3f3a,2018-05-08T11:28:29Z,2018-06-01T02:05:26Z,,
Snowy Range,,-106.1835168,41.3412218,,,,,USA,,,d6fdd6c7-bc5e-4a69-93d7-35d57f2fa408,2018-05-08T11:28:29Z,2018-06-01T02:05:26Z,,
Snozone – Castleford (indoor ski area),,-1.3422954,53.7103725,,,,,United Kingdom,Europe,EU,46dced93-b806-4ea6-b55c-fd9c33110d4e,2018-05-08T11:28:29Z,2018-06-01T02:05:26Z,,
Snozone – Milton Keynes (indoor ski area),,-0.7474992,52.0418608,,,,,United Kingdom,Europe,EU,9dc7d35c-d6f9-435a-8333-9db7935de5e1,2018-05-08T11:28:29Z,2018-06-01T02:05:26Z,,
Soda Springs,,-111.6046687,42.6543652,,,,,USA,,,c8167ddc-0d85-4e1e-b157-49aa7a336018,2018-05-08T11:28:29Z,2018-06-01T02:05:26Z,,
Sogn Skisenter,,7.2173075,61.3357233,,,,,Norway,Europe,,e59d053b-d1cf-4f0d-b26f-3af95b947c10,2018-05-08T11:28:29Z,2018-06-01T02:05:26Z,,
Soldeu,,1.6660487,42.577791,,,,,Andorra,Europe,,1c0d498a-3bf9-460f-bad0-599ec70c3927,2018-05-08T11:28:29Z,2018-06-01T02:05:26Z,,
